     3.04           OBSERVATION DATA    M                   RINEX VERSION / TYPE
ssrcrin-15.6.1x                         20250102 183000 UTC PGM / RUN BY / DATE 
(00000000023479385599111004) Septentrio proprietary         COMMENT             
ract                                                        MARKER NAME         
01                                                          MARKER NUMBER       
geodetic                                                    MARKER TYPE         
NFB                 CLIMERS@TUW                             OBSERVER / AGENCY   
3296359             SEPT ASTERX SB3 PROB4.14.4              REC # / TYPE / VERS 
Unknown             Unknown                                 ANT # / TYPE        
  4127448.2220  1206915.0406  4695543.5562                  APPROX POSITION XYZ 
        0.0000        0.0000        0.0000                  ANTENNA: DELTA H/E/N
G   23 X1  C1C L1C D1C S1C C1W S1W C2W L2W D2W S2W C2L L2L  SYS / # / OBS TYPES 
       D2L S2L C5Q L5Q D5Q S5Q C1L L1L D1L S1L              SYS / # / OBS TYPES 
E   21 X1  C1C L1C D1C S1C C6C L6C D6C S6C C5Q L5Q D5Q S5Q  SYS / # / OBS TYPES 
       C7Q L7Q D7Q S7Q C8Q L8Q D8Q S8Q                      SYS / # / OBS TYPES 
S    9 X1  C1C L1C D1C S1C C5I L5I D5I S5I                  SYS / # / OBS TYPES 
R   17 X1  C1C L1C D1C S1C C2P L2P D2P S2P C2C L2C D2C S2C  SYS / # / OBS TYPES 
       C3Q L3Q D3Q S3Q                                      SYS / # / OBS TYPES 
C   25 X1  C1P L1P D1P S1P C5P L5P D5P S5P C2I L2I D2I S2I  SYS / # / OBS TYPES 
       C7I L7I D7I S7I C6I L6I D6I S6I C7D L7D D7D S7D      SYS / # / OBS TYPES 
J   17 X1  C1C L1C D1C S1C C2L L2L D2L S2L C5Q L5Q D5Q S5Q  SYS / # / OBS TYPES 
       C1L L1L D1L S1L                                      SYS / # / OBS TYPES 
I    5 X1  C5A L5A D5A S5A                                  SYS / # / OBS TYPES 
SEPTENTRIO RECEIVERS OUTPUT ALIGNED CARRIER PHASES.         COMMENT             
NO FURTHER PHASE SHIFT APPLIED IN THE RINEX ENCODER.        COMMENT             
G L1C                                                       SYS / PHASE SHIFT   
G L2W                                                       SYS / PHASE SHIFT   
G L2L  0.00000                                              SYS / PHASE SHIFT   
G L5Q  0.00000                                              SYS / PHASE SHIFT   
G L1L  0.00000                                              SYS / PHASE SHIFT   
E L1C  0.00000                                              SYS / PHASE SHIFT   
E L6C  0.00000                                              SYS / PHASE SHIFT   
E L5Q  0.00000                                              SYS / PHASE SHIFT   
E L7Q  0.00000                                              SYS / PHASE SHIFT   
E L8Q  0.00000                                              SYS / PHASE SHIFT   
S L1C                                                       SYS / PHASE SHIFT   
S L5I                                                       SYS / PHASE SHIFT   
R L1C                                                       SYS / PHASE SHIFT   
R L2P  0.00000                                              SYS / PHASE SHIFT   
R L2C                                                       SYS / PHASE SHIFT   
R L3Q  0.00000                                              SYS / PHASE SHIFT   
C L1P  0.00000                                              SYS / PHASE SHIFT   
C L5P  0.00000                                              SYS / PHASE SHIFT   
C L2I                                                       SYS / PHASE SHIFT   
C L7I                                                       SYS / PHASE SHIFT   
C L6I                                                       SYS / PHASE SHIFT   
C L7D                                                       SYS / PHASE SHIFT   
J L1C                                                       SYS / PHASE SHIFT   
J L2L  0.00000                                              SYS / PHASE SHIFT   
J L5Q  0.00000                                              SYS / PHASE SHIFT   
J L1L  0.00000                                              SYS / PHASE SHIFT   
I L5A                                                       SYS / PHASE SHIFT   
  2025     1     2    18    30    0.0000000     GPS         TIME OF FIRST OBS   
 C1C    0.000 C2C    0.000 C2P    0.000                     GLONASS COD/PHS/BIS 
DBHZ                                                        SIGNAL STRENGTH UNIT
    18                                                      LEAP SECONDS        
 24 R01  1 R02 -4 R03  5 R04  6 R05  1 R06 -4 R07  5 R08  6 GLONASS SLOT / FRQ #
    R09 -2 R10 -7 R11  0 R12 -1 R13 -2 R14 -7 R15  0 R16 -1 GLONASS SLOT / FRQ #
    R17  4 R18 -3 R19  3 R20  2 R21  4 R22 -3 R23  3 R24  2 GLONASS SLOT / FRQ #
                                                            END OF HEADER       
> 2025 01 02 18 30  0.0000000  0 40
G10         1.000    24181549.847 5 127074941.92905      2757.786 5        33.138
G23         2.000    21692245.333 7 113993532.85607      1548.535 7        42.133                                    21692239.718 3  88826097.42003      1206.655 3        19.254    21692244.503 6  88826122.33906      1206.469 6        36.457
G05         4.000    24465017.684 5                     -3966.433 5        32.269                                                                                                    24465025.709 3                     -3091.421 3        21.929
G08         5.000    25057267.269 4                      2493.111 4        26.539
G29         9.000                                                                                                                                                                    23483867.187 4                     -2991.383 4        29.687
G18        12.000    20726089.539 7 108916565.65707     -2181.970 7        45.825                                    20726084.712 5  84869929.81405     -1700.240 5        30.438    20726084.628 7  84870129.82507     -1700.279 7        42.688
G27        13.000    22056208.394 6 115906151.29306      1936.473 6        37.327                                    22056211.168 4  90316480.32904      1508.947 4        26.204    22056209.500 6  90316519.30906      1508.957 6        39.562
E27        14.000    28098447.877 6 147658354.64606      2023.722 6        37.123                                                                    28098447.109 6 110264350.26806      1511.142 6        37.127    28098443.823 5 113140792.86205      1550.563 5        30.385
R03        15.000                                                                                                                                    22253039.622 5  92650652.43705       425.419 5        34.333
G26        17.000    20773189.146 7 109163892.87907     -2423.968 7        46.159                                    20773188.410 7  85063172.64807     -1888.806 7        42.476    20773189.033 7  85062746.65007     -1888.729 7        42.011
R02        18.000                                                                                                                                    23457415.193 5  97356971.01105     -2146.699 5        32.413
E30        19.000    24345911.849 6 127938623.57606       355.916 6        38.847                                                                    24345922.459 4  95538757.06004       265.915 4        24.195    24345942.144 4  98031015.22904       273.031 4        28.692
R20        20.000    20771707.906 6 111075604.34006      1514.069 6        38.087                                                                    20771700.528 7  86392213.98607      1177.751 7        43.596
E02        21.000    23758150.128 7 124850180.84507     -2544.156 7        45.816                                                                    23758149.177 8  93232186.08808     -1899.933 8        48.109    23758147.587 7  95664337.97007     -1949.432 7        44.602
S23        22.000    38057226.110 6 199992109.56206      -865.279 6        40.155
R10        23.000    20214495.473 6 107754637.51506       308.079 6        38.706
E36        24.000    23581658.823 7 123922476.42107     -1921.593 7        44.488                                                                    23581657.069 6  92539678.91506     -1434.740 6        37.917    23581657.815 7  94953739.27007     -1472.321 7        44.378
R18        25.000    22355765.146 3                     -4260.757 3        21.452                                                                    22355797.060 4                     -3314.503 4        26.395
G16        26.000    20502522.540 8 107741485.99508       -53.215 8        48.375                                    20502517.650 5  83954392.78105       -41.465 5        31.087
S21        27.000    38331301.515 5 201432614.94705      -863.762 5        34.005
C22        28.000                                                                                                                                    24634796.779 6 128280143.14206      -443.858 6        36.495                                                                    24634805.190 5                      -360.680 5        34.767
R19        29.000    19759940.349 5 105702359.73505     -2549.003 5        31.072                                                                    19759939.204 7  82212935.95307     -1982.205 7        42.262
S36        31.000    38101679.565 6 200225677.09306      -863.253 6        36.431
E34        32.000    24035771.592 7 126308844.24607       795.829 7        46.736                                                                    24035772.752 7  94321544.05407       594.339 7        44.555    24035772.425 6  96782165.42906       609.844 6        40.317
R11        33.000    23673315.860 5 126503054.32005      3216.768 5        35.829                                                                    23673316.657 5  98391221.81405      2501.931 5        34.081
R16        34.000    23548780.525 3                     -5525.919 3        22.552
C44        35.000                                                                                                                                    23939925.892 5 124661284.18005     -3382.966 5        33.868                                                                    23939900.991 5 101297541.80505     -2749.227 5        34.609
C08        36.000                                                                                                                                    37764055.278 5 196647338.62605     -1408.119 5        31.268    37764052.618 6 152060212.80006     -1088.856 6        40.460    37764052.978 5 159792161.83705     -1144.322 5        32.778
R09        37.000    19973017.609 7 106654894.47807     -3354.493 7        43.022                                                                    19973016.166 6  82953798.42506     -2609.074 6        37.187
C11        38.000                                                                                                                                    21796791.825 5 113501664.52805       150.705 5        35.233    21796791.658 8  87766799.08908       116.369 8        51.746    21796788.461 7  92229375.41207       122.212 7        43.865
C12        41.000                                                                                                                                    22528472.029 7 117311649.08107     -2573.911 7        45.889    22528468.749 8  90712902.33708     -1990.286 8        49.790    22528467.816 8  95325404.40208     -2091.613 8        50.233
C13        43.000                                                                                                                                    37590712.135 5 195744719.61505     -1133.906 5        33.234    37590713.822 6 151362228.72806      -877.107 6        38.982    37590712.043 5 159058621.99205      -921.700 5        34.376
C38        44.000                                                                                                                                    39004137.004 4 203104880.20104     -1763.799 4        29.877                                                                    39004133.837 5 165039294.42805     -1432.547 5        32.251
C25        45.000                                                                                                                                    23152221.462 7 120559644.23207     -3191.867 7        43.386                                                                    23152197.287 6  97964761.46306     -2593.664 6        38.994
C21        46.000                                                                                                                                    25217269.940 5                      1846.220 5        31.736                                                                    25217235.771 4 106702388.86204      1499.909 4        28.512
C23        47.000                                                                                                                                    23758530.862 7 123716959.89107      -240.286 7        42.800                                                                    23758518.561 4 100530162.10704      -195.374 4        27.281
C43        48.000                                                                                                                                    23034106.764 6 119944717.96606      1209.047 6        40.691                                                                    23034106.797 7  97464871.72007       982.241 7        44.476
C34        52.000                                                                                                                                    21272609.172 6 110772122.70806     -1114.496 6        36.945                                                                    21272606.280 6  90011506.40906      -905.747 6        38.099
I01        56.000   410062529.373 6 306032633.44306     -1708.667 6        40.808
I06        58.000    38601476.761 7 151480610.08207      -613.657 7        43.433
> 2025 01 02 18 30  5.0000000  0 42
G10         1.000    24178924.631 5 127061157.11405      2756.861 5        31.834
G23         2.000    21690774.504 7 113985798.21707      1545.874 7        42.605                                    21690767.973 3  88820070.44403      1204.576 3        20.286    21690770.960 6  88820095.38906      1204.324 6        38.048
G05         4.000    24468791.859 5                     -3968.437 5        31.924                                                                                                    24468801.530 3                     -3091.645 3        21.810
G08         5.000    25054896.325 3                      2492.704 3        22.362
G31         7.000    24841002.599 4                     -4219.627 4        27.102
G07         8.000    25782732.776 5                      1127.259 5        32.784
G29         9.000                                                                                                                                                                    23487525.158 4                     -2992.598 4        28.692
G18        12.000    20728167.016 7 108927482.59507     -2184.388 7        46.239                                    20728162.062 5  84878436.51205     -1702.118 5        30.370    20728162.413 7  84878636.52207     -1702.135 7        42.997
G27        13.000    22054365.218 5 115896473.31405      1935.043 5        35.743                                    22054369.713 4  90308939.02804      1507.834 4        25.068    22054367.039 6  90308977.99706      1507.908 6        39.754
E27        14.000    28096523.893 6 147648238.53506      2023.167 6        37.856                                                                    28096522.506 6 110256796.03706      1510.668 6        37.890    28096517.885 5 113133041.59005      1550.275 5        30.091
R03        15.000    22252546.093 4                       543.814 4        29.185                                                                    22252529.550 5  92648534.21615       422.356 5        33.192
G26        17.000    20775497.105 7 109176021.30307     -2427.042 7        46.819                                    20775496.353 7  85072623.36807     -1891.199 7        42.258    20775496.644 7  85072197.37107     -1891.121 7        42.282
R02        18.000    23460014.776 5 125187017.67915     -2764.120 5        31.472                                                                    23460007.596 5  97367713.99205     -2149.570 5        30.943
E30        19.000    24345574.561 6 127936850.09006       353.947 6        39.180                                                                    24345582.739 3                       264.081 3        22.686    24345603.425 4  98029656.44504       271.453 4        28.000
R20        20.000    20770297.875 6 111068039.77406      1511.994 6        37.989                                                                    20770284.999 7  86386330.42607      1176.035 7        42.804
E02        21.000    23760572.058 7 124862908.02707     -2546.237 7        47.078                                                                    23760571.196 8  93241690.14608     -1901.411 8        48.128    23760569.532 7  95674089.96507     -1951.031 7        44.843
S23        22.000    38058047.882 6 199996437.69506      -865.493 6        40.281
R10        23.000    20214210.000 6 107753109.37706       303.608 6        40.307
E36        24.000    23583488.318 7 123932089.43307     -1923.264 7        44.932                                                                    23583486.677 6  92546857.46606     -1436.203 6        37.917    23583487.020 7  94961105.08807     -1473.705 7        44.566
R18        25.000    22359744.389 3                     -4266.199 3        20.810                                                                    22359791.681 4                     -3315.008 4        27.760
G16        26.000    20502574.217 7 107741761.65907       -56.688 7        47.188                                    20502569.932 5  83954607.58605       -44.170 5        30.709
S21        27.000    38332123.703 5 201436935.22805      -863.898 5        33.934
C22        28.000                                                                                                                                    24635225.666 5 128282370.73905      -446.922 5        35.010                                                                    24635232.050 5 104239728.30315      -363.082 5        34.971
R19        29.000    19762322.144 5 105715109.03405     -2550.456 5        31.947                                                                    19762322.511 7  82222852.17607     -1983.926 7        42.531
S36        31.000    38102500.693 6 200229993.95806      -863.396 6        36.352
E34        32.000    24035015.556 7 126304870.64207       794.049 7        46.214                                                                    24035016.465 7  94318576.74907       593.034 7        44.778    24035015.188 6  96779120.71006       608.361 6        40.203
R11        33.000    23670309.555 6 126486975.30306      3214.982 6        36.026                                                                    23670309.249 5  98378715.86605      2500.925 5        33.245
R16        34.000    23553948.209 3                     -5525.821 3        23.219
C44        35.000                                                                                                                                                                                                                                                                    23943150.184 5 101311289.10105     -2749.383 5        33.994
C08        36.000                                                                                                                                    37765409.580 5 196654382.63405     -1408.951 5        30.536    37765405.426 6 152065659.68106     -1089.649 6        40.226    37765405.531 5 159797885.66905     -1145.052 5        32.078
R09        37.000    19976159.819 6 106671677.85606     -3358.491 6        41.516                                                                    19976160.753 6  82966852.16606     -2612.133 6        36.881
C11        38.000                                                                                                                                    21796644.244 6 113500917.23106       148.883 6        36.401    21796647.504 8  87766221.20608       115.105 8        51.807    21796644.782 7  92228768.12107       121.006 7        43.244
C12        41.000                                                                                                                                    22530943.638 7 117324522.52407     -2575.057 7        46.145    22530940.513 8  90722856.90008     -1991.248 8        49.433    22530939.910 8  95335865.10508     -2092.414 8        49.803
C13        43.000                                                                                                                                    37591803.329 5 195750394.13605     -1135.202 5        33.719    37591803.014 6 151366616.58906      -877.817 6        38.847    37591801.847 5 159063232.94305      -922.513 5        33.713
C38        44.000                                                                                                                                    39005830.207 4 203113700.01804     -1764.253 4        29.801                                                                    39005827.820 5 165046461.26305     -1433.561 5        31.479
C25        45.000                                                                                                                                    23155282.309 7 120575609.41907     -3193.911 7        42.292                                                                    23155263.109 6  97977734.43706     -2595.198 6        38.285
C21        46.000                                                                                                                                    25215491.996 5                      1844.698 5        30.543                                                                    25215464.924 4 106694891.47104      1499.120 4        28.616
C23        47.000                                                                                                                                    23758763.760 7 123718169.98307      -243.315 7        43.403                                                                    23758748.107 4 100531145.41004      -197.511 4        27.210
C43        48.000                                                                                                                                    23032946.945 6 119938677.18406      1207.768 6        41.857                                                                    23032946.561 7  97459963.05507       981.469 7        44.024
C34        52.000                                                                                                                                    21273681.726 6 110777700.57506     -1116.214 6        39.297                                                                    21273677.755 6  90016038.89406      -906.952 6        37.720
I01        56.000   410064706.306 6 306041178.37806     -1709.071 6        40.749
I06        58.000    38602258.855 7 151483679.28307      -613.698 7        43.340
> 2025 01 02 18 30 10.0000000  0 42
G10         1.000    24176302.699 5 127047373.84305      2756.372 5        30.475
G23         2.000    21689304.750 7 113978075.45207      1543.458 7        43.012                                    21689298.969 3  88814052.73103      1202.688 3        21.190    21689302.740 6  88814077.68106      1202.678 6        38.961
G05         4.000    24472566.941 5                     -3970.105 5        31.872                                                                                                    24472580.234 3                     -3092.344 3        20.929
G08         5.000    25052526.481 3                      2489.752 3        20.333
G31         7.000    24845016.640 4                     -4219.355 4        27.856
G07         8.000    25781657.342 5 135483535.66815      1125.164 5        33.186
G29         9.000    23491173.409 5 123446940.80915     -3840.998 5        34.543                                                                                                    23491179.972 4                     -2992.736 4        26.659
G18        12.000    20730246.854 7 108938410.48507     -2186.625 7        46.849                                    20730241.573 5  84886951.75005     -1703.862 5        30.181    20730242.043 7  84887151.75607     -1703.846 7        42.624
G27        13.000    22052521.606 5 115886800.65405      1934.353 5        33.323                                    22052529.180 3  90301401.86403      1507.289 3        23.790    22052526.883 6  90301440.86506      1507.016 6        40.300
E27        14.000    28094599.262 6 147638123.93606      2022.913 6        38.565                                                                    28094597.928 6 110249242.92706      1510.713 6        37.917    28094592.309 5 113125291.46105      1549.742 5        30.377
R03        15.000    22252055.342 5                       539.092 5        34.333                                                                    22252021.602 5  92646430.98005       419.504 5        31.555
G26        17.000    20777808.229 7 109188163.74407     -2429.886 7        47.405                                    20777806.947 7  85082085.00807     -1893.420 7        42.047    20777807.116 6  85081659.01506     -1893.407 6        41.855
R02        18.000    23462598.412 4 125200848.48804     -2767.709 4        25.940
E30        19.000    24345238.829 6 127935085.57606       352.137 6        39.595                                                                    24345245.405 4                       262.757 4        24.737    24345257.501 5  98028304.50905       269.587 5        30.513
R20        20.000    20768885.039 6 111060484.81606      1510.429 6        36.476                                                                    20768871.746 7  86380454.37007      1174.406 7        42.451
E02        21.000    23762995.808 8 124875644.11608     -2548.072 8        48.156                                                                    23762994.880 8  93251200.85708     -1902.739 8        48.163    23762993.446 7  95683848.79007     -1952.376 7        44.864
S23        22.000    38058873.665 6 200000765.36006      -865.410 6        40.162
R10        23.000    20213927.358 6 107751602.72106       299.199 6        40.918
E36        24.000    23585319.185 7 123941709.81607     -1924.800 7        45.536                                                                    23585317.603 6  92554041.50006     -1437.283 6        38.006    23585317.666 7  94968476.55507     -1474.784 7        44.658
R18        25.000    22363741.796 3                     -4265.212 3        21.167
G16        26.000    20502629.351 7 107742052.99107       -59.797 7        46.473                                    20502625.049 4  83954834.59904       -46.598 4        29.820
S21        27.000    38332948.472 5 201441254.98605      -863.902 5        34.229
C22        28.000                                                                                                                                    24635659.179 5 128284612.06805      -449.462 5        33.880                                                                    24635664.163 5 104241549.63405      -365.221 5        34.405
R19        29.000    19764707.660 5 105727868.14905     -2552.801 5        34.571                                                                    19764707.162 7  82232775.88307     -1985.404 7        42.201
S36        31.000    38103322.175 6 200234310.56106      -863.237 6        36.098
E34        32.000    24034261.080 7 126300904.50207       792.520 7        45.866                                                                    24034261.566 7  94315615.01107       591.899 7        45.028    24034258.877 6  96776081.71706       607.182 6        40.055
R11        33.000    23667303.393 5 126470903.08005      3213.565 5        35.976                                                                    23667300.563 5  98366215.19005      2499.947 5        32.946
R16        34.000    23559122.503 3                     -5527.306 3        23.238
C44        35.000                                                                                                                                    23946399.205 6 124695122.80606     -3384.088 6        36.389                                                                    23946400.211 5 101325038.33705     -2749.973 5        33.521
C08        36.000                                                                                                                                    37766762.227 5 196661430.46705     -1410.286 5        30.128    37766758.615 6 152071109.43806     -1090.196 6        39.727    37766758.755 5 159803612.52505     -1145.625 5        31.283
R09        37.000    19979306.018 6 106688479.66506     -3362.238 6        40.527                                                                    19979306.936 6  82979920.23506     -2614.693 6        37.062
C11        38.000                                                                                                                                    21796503.437 6 113500176.74506       147.452 6        38.877    21796504.920 8  87765648.62208       114.055 8        51.756    21796502.365 7  92228166.44907       119.831 7        42.993
C12        41.000                                                                                                                                    22533417.103 7 117337400.88207     -2576.074 7        46.680    22533413.277 8  90732815.25608     -1992.030 8        48.776    22533412.925 8  95346329.84008     -2093.326 8        49.582
C13        43.000                                                                                                                                    37592895.004 5 195756072.33305     -1136.088 5        34.486    37592893.252 6 151371007.32906      -878.388 6        38.691    37592892.479 5 159067846.93605      -923.056 5        33.581
C38        44.000                                                                                                                                    39007526.651 4 203122522.39504     -1764.823 4        28.882                                                                    39007521.745 5 165053630.14905     -1433.826 5        31.434
C25        45.000                                                                                                                                    23158342.890 6 120591583.85206     -3195.791 6        40.269                                                                    23158330.827 6  97990715.00606     -2596.834 6        37.157
C21        46.000                                                                                                                                                                                                                                                                    25213695.038 4 106687398.94504      1497.873 4        29.763
C23        47.000                                                                                                                                    23758999.170 7 123719393.66207      -246.058 7        44.147                                                                    23758983.724 4 100532139.74804      -199.759 4        27.138
C43        48.000                                                                                                                                    23031786.351 7 119932641.34607      1206.718 7        42.385                                                                    23031787.041 7  97455058.43507       980.634 7        43.433
C34        52.000                                                                                                                                    21274755.656 6 110783285.77606     -1117.638 6        40.482                                                                    21274750.450 6  90020577.36106      -908.279 6        38.273
I01        56.000   410066884.250 6 306049723.66006     -1709.108 6        40.696
I06        58.000    38603040.701 7 151486748.00307      -613.666 7        43.227
> 2025 01 02 18 30 15.0000000  0 39
G10         1.000    24173680.029 5 127033592.52105      2755.713 5        30.551
G23         2.000    21687836.671 7 113970364.89307      1540.902 7        43.700                                    21687832.782 3  88808044.50703      1200.703 3        21.810    21687837.917 6  88808069.47706      1200.649 6        39.492
G05         4.000    24476347.783 5                     -3972.077 5        31.540                                                                                                    24476360.553 3                     -3097.596 3        19.045
G31         7.000    24849033.646 4                     -4219.565 4        29.327
G07         8.000    25780589.813 5 135477915.51905      1123.046 5        31.540
G29         9.000    23494824.779 5 123466147.22605     -3841.802 5        34.052                                                                                                    23494835.514 4                     -2993.451 4        25.188
G18        12.000    20732327.922 7 108949349.61807     -2188.968 7        46.563                                    20732323.269 5  84895475.74505     -1705.682 5        30.453    20732323.513 7  84895675.76007     -1705.670 7        42.343
G27        13.000    22050682.558 4 115877133.66204      1933.484 4        25.579                                    22050689.483 3  90293869.08503      1506.607 3        21.643    22050687.203 6  90293908.06106      1506.095 6        40.110
E27        14.000    28092674.010 6 147628011.18906      2022.346 6        38.036                                                                    28092673.696 6 110241691.19806      1510.270 6        38.279    28092667.837 5 113117542.75805      1549.472 5        30.355
R03        15.000    22251557.078 5 119114292.37015       534.777 5        35.800                                                                    22251521.574 4  92644343.44704       416.113 4        29.393
G26        17.000    20780121.083 7 109200320.52007     -2432.875 7        47.376                                    20780120.234 7  85091557.81807     -1895.745 7        42.174    20780120.115 6  85091131.82406     -1895.762 6        41.573
R02        18.000                                                                                                                                    23465220.047 4  97389243.34404     -2155.747 4        29.062
E30        19.000    24344904.421 6 127933330.29306       350.158 6        39.429                                                                    24344911.245 4                       261.884 4        28.009    24344923.800 5  98026959.53305       268.559 5        31.947
R20        20.000    20767465.423 5 111052939.82105      1507.773 5        35.143                                                                    20767460.868 7  86374586.01607      1172.882 7        42.144
E02        21.000    23765421.188 8 124888389.40808     -2549.986 8        48.527                                                                    23765420.212 8  93260718.44308     -1904.257 8        48.122    23765419.079 7  95693614.66707     -1953.928 7        44.746
S23        22.000    38059696.963 6 200005092.80206      -865.510 6        40.248
R10        23.000    20213648.564 6 107750117.83406       294.818 6        40.694
E36        24.000    23587151.733 7 123951337.85707     -1926.391 7        45.667                                                                    23587149.752 6  92561231.27506     -1438.442 6        38.063    23587149.712 7  94975853.89107     -1476.090 7        44.327
G16        26.000    20502687.836 7 107742360.30307       -63.026 7        45.737                                    20502682.921 4  83955074.06904       -49.110 4        28.768
S21        27.000    38333771.089 5 201445574.52205      -864.265 5        34.286
C22        28.000                                                                                                                                    24636091.770 5 128286867.51505      -452.221 5        33.731                                                                    24636099.873 5 104243382.44005      -367.895 5        33.317
R19        29.000    19767097.659 6 105740637.23306     -2554.772 6        36.420                                                                    19767094.273 7  82242707.39007     -1987.128 7        42.243
S36        31.000    38104146.975 5 200238626.84905      -862.930 5        35.905
E34        32.000    24033508.243 7 126296946.13307       790.899 7        45.369                                                                    24033508.419 7  94312659.08307       590.509 7        45.306    24033504.092 6  96773048.65306       606.119 6        39.393
R11        33.000    23664297.978 5 126454838.03105      3212.161 5        35.976                                                                    23664297.507 5  98353720.20505      2498.275 5        32.443
C44        35.000                                                                                                                                    23949649.274 6 124712045.76906     -3384.742 6        37.399                                                                    23949650.624 5 101338789.64805     -2750.628 5        33.245
C08        36.000                                                                                                                                    37768118.476 5 196668482.36305     -1410.925 5        30.287    37768113.139 6 152076562.44206     -1091.033 6        39.402    37768113.006 5 159809342.76905     -1146.352 5        30.370
R09        37.000    19982456.710 6 106705300.43706     -3366.091 6        40.732                                                                    19982456.733 6  82993003.06106     -2618.011 6        36.635
C11        38.000                                                                                                                                    21796367.603 6 113499443.38606       146.026 6        40.572    21796363.912 8  87765081.56608       112.848 8        51.779    21796361.522 7  92227570.57007       118.570 7        42.902
C12        41.000                                                                                                                                    22535891.684 7 117350284.45407     -2577.251 7        46.816    22535887.373 8  90742777.64708     -1992.921 8        48.106    22535887.008 8  95356798.80108     -2094.283 8        49.472
C13        43.000                                                                                                                                    37593985.158 5 195761754.66305     -1136.917 5        34.900    37593984.678 6 151375401.26006      -879.017 6        38.841    37593983.380 5 159072464.32205      -923.758 5        33.820
C38        44.000                                                                                                                                    39009219.902 4 203131347.63604     -1765.040 4        28.379                                                                    39009216.058 5 165060801.40605     -1434.652 5        31.608
C25        45.000                                                                                                                                    23161411.382 6 120607567.85106     -3197.948 6        37.834                                                                    23161399.767 6  98003703.34406     -2598.636 6        36.197
C21        46.000                                                                                                                                                                                                                                                                    25211925.850 5 106679911.49905      1496.745 5        30.257
C23        47.000                                                                                                                                    23759237.432 7 123720631.20807      -248.858 7        45.102                                                                    23759221.395 4 100533145.41104      -202.572 4        27.497
C43        48.000                                                                                                                                    23030627.728 6 119926610.71806      1205.672 6        41.738                                                                    23030628.442 7  97450158.04707       979.574 7        42.918
C34        52.000                                                                                                                                    21275829.223 6 110788878.60706     -1119.315 6        41.192                                                                    21275824.845 6  90025121.99306      -909.588 6        38.829
I01        56.000   410069062.643 6 306058269.51706     -1709.312 6        40.420
I06        58.000    38603822.741 7 151489816.47307      -613.719 7        43.310
> 2025 01 02 18 30 20.0000000  0 40
G10         1.000    24171058.889 5 127019813.49505      2755.754 5        31.125
G23         2.000    21686371.334 7 113962667.01007      1538.334 7        44.939                                    21686368.696 3  88802046.15703      1198.701 3        22.686    21686373.046 6  88802071.11506      1198.716 6        39.213
G05         4.000    24480133.334 5                     -3973.954 5        32.371                                                                                                    24480134.343 3                     -3097.683 3        20.857
G31         7.000    24853051.806 4                     -4220.040 4        28.464
G07         8.000    25779522.687 4 135472306.30304      1120.961 4        28.787
G29         9.000    23498481.654 5 123485357.83805     -3842.654 5        33.539                                                                                                    23498492.465 3                     -2995.303 3        22.743
G18        12.000    20734411.457 7 108960300.43607     -2191.285 7        46.484                                    20734407.323 5  84904008.84005     -1707.495 5        30.453    20734407.779 7  84904208.86807     -1707.513 7        42.451
G27        13.000                                                                                                                                                                    22048848.921 6  90286380.01006      1505.183 6        39.808
E27        14.000    28090749.237 6 147617900.70106      2021.881 6        37.773                                                                    28090749.977 6 110234141.15106      1510.006 6        38.501    28090744.180 5 113109795.76505      1549.329 5        30.453
R03        15.000    22251064.755 6 119111628.45206       530.886 6        37.077                                                                    22251024.131 4  92642271.47604       413.224 4        28.730
G26        17.000    20782437.405 7 109212492.03407     -2435.738 7        46.942                                    20782436.333 7  85101042.11007     -1897.978 7        42.216    20782436.604 6  85100616.12206     -1897.961 6        41.588
E30        19.000    24344572.430 6 127931584.74006       348.095 6        39.336                                                                    24344580.564 5                       259.867 5        31.283    24344593.751 5  98025622.02305       267.279 5        31.947
R20        20.000    20766048.585 5 111045405.09005      1506.186 5        34.776                                                                    20766051.102 7  86368725.68007      1171.351 7        42.076
E02        21.000    23767848.226 8 124901144.34808     -2551.909 8        48.613                                                                    23767847.417 8  93270243.22708     -1905.633 8        48.118    23767846.531 7  95703387.93207     -1955.358 7        44.941
S23        22.000    38060521.713 6 200009420.56006      -865.580 6        40.446
R10        23.000    20213374.299 6 107748655.27206       290.348 6        41.156
E36        24.000    23588984.958 7 123960974.01407     -1928.104 7        45.261                                                                    23588983.573 6  92568427.11106     -1439.667 6        38.276    23588983.264 7  94983237.44507     -1477.229 7        44.001
R18        25.000                                                                                                                                    22371802.665 4                     -3314.885 4        24.361
G16        26.000    20502749.930 7 107742684.05007       -66.320 7        45.362                                    20502743.950 4  83955326.35304       -51.680 4        27.689
S21        27.000    38334588.636 5 201449894.29105      -863.852 5        34.171
C22        28.000                                                                                                                                    24636528.204 5 128289137.51005      -455.052 5        33.269                                                                    24636537.926 5 104245227.01505      -369.741 5        31.555
R19        29.000    19769489.183 6 105753416.70306     -2556.969 6        36.696                                                                    19769483.168 7  82252646.98707     -1988.755 7        42.411
S36        31.000    38104965.358 6 200242942.69006      -863.153 6        36.284
E34        32.000    24032756.954 7 126292995.97807       789.311 7        45.314                                                                    24032756.897 7  94309709.28907       589.306 7        45.729    24032752.265 6  96770021.91506       604.717 6        39.438
R11        33.000    23661292.596 5 126438780.59405      3210.766 5        35.524                                                                    23661292.311 5  98341231.06805      2497.273 5        32.467
R16        34.000                                                                                                                                    23569483.134 3                     -4302.624 3        18.985
C44        35.000                                                                                                                                    23952901.997 6 124728971.74906     -3385.340 6        38.282                                                                    23952901.632 5 101352543.40105     -2750.790 5        32.168
C08        36.000                                                                                                                                    37769471.994 4 196675538.79404     -1412.066 4        29.782    37769467.944 6 152082018.94406     -1091.729 6        38.934    37769467.703 4 159815076.74204     -1147.415 4        29.336
R09        37.000    19985612.568 7 106722140.39407     -3369.895 7        44.182                                                                    19985608.589 6  83006100.79006     -2621.104 6        36.227
C11        38.000                                                                                                                                    21796229.590 6 113498717.61906       144.387 6        41.404    21796224.370 8  87764520.35808       111.707 8        51.773    21796222.126 7  92226980.83407       117.441 7        42.745
C12        41.000                                                                                                                                    22538366.839 7 117363173.69407     -2578.419 7        46.739    22538362.663 7  90752744.40807     -1993.698 7        47.304    22538362.133 8  95367272.35108     -2095.011 8        49.105
C13        43.000                                                                                                                                    37595078.276 5 195767441.34305     -1137.799 5        34.871    37595076.531 6 151379798.60106      -879.875 6        38.622    37595075.732 5 159077085.23005      -924.428 5        33.389
C38        44.000                                                                                                                                    39010912.644 4 203140176.19504     -1765.649 4        28.654                                                                    39010911.866 5 165067975.31105     -1434.785 5        32.000
C25        45.000                                                                                                                                                                                                                                                                    23164471.032 5  98016699.77705     -2599.931 5        35.262
C21        46.000                                                                                                                                    25210159.881 5                      1841.016 5        32.317                                                                    25210158.900 5 106672429.56205      1495.718 5        30.249
C23        47.000                                                                                                                                    23759478.110 7 123721883.07307      -251.896 7        46.129                                                                    23759462.133 4 100534162.55104      -204.050 4        27.293
C43        48.000                                                                                                                                    23029470.628 6 119920585.73906      1204.480 6        41.557                                                                    23029471.192 7  97445262.23907       978.886 7        42.400
C34        52.000                                                                                                                                    21276904.116 6 110794479.48306     -1120.990 6        41.540                                                                    21276900.684 6  90029673.16506      -910.871 6        38.922
I01        56.000   410071240.542 6 306066816.27706     -1709.415 6        40.644
I06        58.000    38604604.762 7 151492884.99407      -613.690 7        43.528
> 2025 01 02 18 30 25.0000000  0 39
G10         1.000    24168437.293 5 127006036.42105      2755.254 5        30.174
G23         2.000    21684909.499 7 113954981.24707      1535.700 7        45.821                                    21684907.044 3  88796057.26303      1196.636 3        23.410    21684908.793 6  88796082.21706      1196.784 6        39.156
G05         4.000    24483920.887 5                     -3975.771 5        32.479                                                                                                    24483913.713 3                     -3096.069 3        20.976
G31         7.000    24857067.310 4                     -4219.939 4        26.395
G29         9.000    23502144.347 5 123504572.16505     -3843.644 5        32.886                                                                                                    23502149.582 3                     -2992.612 3        20.119
G18        12.000    20736497.530 7 108971262.40307     -2193.685 7        46.173                                    20736493.585 5  84912550.64005     -1709.365 5        30.445    20736493.831 7  84912750.65107     -1709.280 7        42.373
G27        13.000    22047028.152 4                      1930.877 4        27.162                                                                                                    22047011.747 6  90278856.27606      1504.182 6        39.471
E27        14.000    28088825.328 6 147607791.97906      2021.419 6        36.469                                                                    28088826.497 6 110226592.43406      1509.500 6        38.826    28088820.866 5 113102050.11005      1549.135 5        30.717
R03        15.000    22250570.799 5 119108984.27005       526.684 5        33.683                                                                    22250537.990 4  92640214.77504       409.275 4        26.886
G26        17.000    20784756.274 7 109224677.77907     -2438.759 7        46.170                                    20784755.165 7  85110537.49307     -1900.328 7        42.157    20784755.561 6  85110111.49606     -1900.336 6        41.516
R02        18.000                                                                                                                                    23470402.025 5  97410831.20705     -2161.765 5        34.629
E30        19.000    24344242.091 6 127929848.39306       346.174 6        38.721                                                                    24344251.336 5                       258.735 5        33.018    24344264.463 5  98024291.58005       265.768 5        30.008
R20        20.000    20764638.666 5 111037880.14905      1503.938 5        33.784                                                                    20764643.603 7  86362872.98307      1169.644 7        42.262
E02        21.000    23770276.600 8 124913908.41008     -2553.913 8        48.080                                                                    23770276.243 8  93279774.82408     -1907.086 8        48.180    23770275.546 7  95713168.17707     -1956.863 7        45.013
S23        22.000    38061345.520 6 200013748.22306      -865.799 6        40.195
R10        23.000    20213104.235 6 107747214.31106       285.751 6        40.815
E36        24.000    23590819.069 7 123970617.74307     -1929.739 7        44.767                                                                    23590818.912 6  92575628.61206     -1441.083 6        38.877    23590818.387 7  94990626.81407     -1478.544 7        43.958
R18        25.000                                                                                                                                    22375805.071 3                     -3316.059 3        21.595
G16        26.000    20502814.906 7 107743023.69107       -69.673 7        45.610                                    20502808.010 4  83955591.02204       -54.290 4        26.790
S21        27.000    38335414.478 5 201454213.92605      -864.254 5        34.048
C22        28.000                                                                                                                                    24636967.755 5 128291421.49505      -458.470 5        33.114                                                                    24636980.213 4 104247082.99104      -373.154 4        28.559
R19        29.000    19771881.030 6 105766206.06006     -2559.120 6        36.306                                                                    19771874.035 7  82262594.28207     -1990.399 7        42.184
S36        31.000    38105785.950 6 200247257.45406      -863.124 6        36.299
E34        32.000    24032006.715 7 126289053.51207       787.624 7        45.448                                                                    24032006.774 7  94306765.23107       588.108 7        46.265    24032002.130 6  96767001.06006       603.374 6        39.598
R11        33.000    23658289.250 5 126422730.19605      3209.178 5        33.587                                                                    23658284.900 5  98328747.30205      2496.291 5        31.826
C44        35.000                                                                                                                                    23956153.250 6 124745900.23506     -3386.096 6        38.177                                                                    23956155.120 5 101366299.20905     -2751.350 5        31.751
C08        36.000                                                                                                                                    37770827.764 4 196682599.22204     -1412.733 4        28.929    37770823.704 6 152087478.48306     -1092.277 6        38.387    37770822.658 4 159820813.88304     -1147.826 4        28.806
R09        37.000    19988772.501 7 106738999.00307     -3373.610 7        45.520                                                                    19988762.868 5  83019213.02805     -2624.061 5        33.563
C11        38.000                                                                                                                                    21796090.713 7 113497998.86407       142.948 7        42.157    21796086.351 8  87763964.58708       110.455 8        51.392    21796084.238 7  92226396.82007       116.175 7        42.682
C12        41.000                                                                                                                                    22540843.168 7 117376068.05207     -2579.590 7        46.742    22540839.014 7  90762715.14207     -1994.693 7        46.637    22540838.316 8  95377750.07308     -2096.040 8        48.910
C13        43.000                                                                                                                                    37596170.764 5 195773132.00805     -1138.805 5        35.100    37596169.039 6 151384198.96906      -880.502 6        38.321    37596168.472 5 159081709.33805      -925.195 5        33.216
C38        44.000                                                                                                                                    39012607.657 4 203149007.51804     -1766.529 4        28.919                                                                    39012607.763 5 165075151.45205     -1435.256 5        31.525
C25        45.000                                                                                                                                                                                                                                                                    23167544.358 5  98029703.93005     -2601.530 5        35.386
C21        46.000                                                                                                                                    25208395.455 5                      1839.722 5        32.198                                                                    25208393.537 5 106664952.61205      1494.696 5        30.928
C23        47.000                                                                                                                                    23759720.917 7 123723148.73807      -254.642 7        46.766                                                                    23759706.223 4 100535191.07804      -207.061 4        27.725
C43        48.000                                                                                                                                    23028315.403 6 119914565.89806      1203.309 6        41.812                                                                    23028314.965 6  97440370.62806       977.799 6        41.967
C34        52.000                                                                                                                                    21277980.125 6 110800087.84706     -1122.563 6        41.943                                                                    21277977.700 6  90034230.41806      -912.140 6        39.360
I01        56.000   410073418.116 6 306075363.54106     -1709.607 6        40.543
I06        58.000    38605386.605 7 151495953.20807      -613.704 7        43.422
> 2025 01 02 18 30 30.0000000  0 40
G10         1.000    24165816.068 4 126992261.28104      2754.524 4        29.896
G23         2.000    21683449.150 7 113947307.76307      1533.449 7        45.571                                    21683447.457 4  88790077.91904      1194.892 4        24.060    21683446.345 6  88790102.87006      1194.843 6        38.565
G05         4.000    24487711.147 5                     -3977.783 5        33.102
G31         7.000    24861082.966 4                     -4219.185 4        25.323
G07         8.000    25777379.296 3                      1116.944 3        19.582
G29         9.000    23505810.004 5 123523790.36605     -3844.705 5        30.023                                    23505811.340 1  96252368.48311     -2995.638 1         1.556
G18        12.000    20738585.937 7 108982235.63807     -2195.700 7        44.945                                    20738582.061 5  84921101.21405     -1710.939 5        30.468    20738582.163 7  84921301.23507     -1710.945 7        42.940
G27        13.000    22045185.874 5                      1929.563 5        32.838                                                                                                    22045174.499 6  90271336.95906      1503.389 6        39.075
E27        14.000    28086901.286 6 147597685.15306      2021.150 6        36.087                                                                    28086903.121 6 110219045.11306      1509.380 6        39.195    28086898.225 5 113094305.92105      1548.500 5        30.566
G26        17.000    20787077.737 7 109236877.87207     -2441.448 7        45.884                                    20787076.813 7  85120044.04807     -1902.428 7        42.152    20787077.357 6  85119618.06306     -1902.477 6        41.569
R02        18.000    23472991.610 4                     -2783.257 4        25.008                                                                    23473005.124 5  97421646.88215     -2164.534 5        35.352
E30        19.000    24343913.786 6 127928121.34906       344.422 6        38.943                                                                    24343922.802 5  95530781.11115       257.124 5        34.595    24343936.821 4  98022968.35004       263.421 4        25.940
R20        20.000    20763235.118 5 111030365.32405      1501.931 5        33.766                                                                    20763237.406 6  86357028.08306      1168.220 6        41.819
E02        21.000    23772707.189 8 124926681.71208     -2555.596 8        48.128                                                                    23772706.878 8  93289313.31708     -1908.410 8        48.158    23772706.216 7  95722955.50307     -1958.187 7        45.196
S23        22.000    38062169.278 6 200018075.89306      -865.582 6        40.236
R10        23.000    20212837.194 6 107745795.18906       281.707 6        39.742
E36        24.000    23592655.386 7 123980269.17707     -1931.016 7        44.366                                                                    23592655.265 6  92582835.83506     -1441.931 6        39.369    23592655.149 7  94998022.05807     -1479.560 7        43.520
R18        25.000    22379814.592 4                     -4263.966 4        26.084
G16        26.000    20502882.698 7 107743379.37507       -72.721 7        44.974                                    20502875.420 4  83955868.18904       -56.677 4        25.789
S21        27.000    38336233.312 5 201458533.54805      -864.013 5        33.748
C22        28.000                                                                                                                                    24637410.640 5 128293719.64105      -461.154 5        33.575                                                                    24637427.087 4 104248950.39304      -374.168 4        25.008
R19        29.000    19774271.367 6 105779005.46706     -2560.990 6        36.212                                                                    19774267.172 7  82272549.35707     -1991.734 7        42.097
S36        31.000    38106609.591 6 200251571.29506      -863.029 6        36.064
E34        32.000    24031257.864 7 126285118.87107       786.191 7        46.253                                                                    24031258.121 7  94303827.02007       587.105 7        46.580    24031253.651 6  96763986.20606       602.401 6        40.093
R11        33.000    23655287.436 5 126406687.13405      3207.757 5        31.457                                                                    23655284.196 5  98316269.30605      2494.981 5        30.408
R16        34.000    23579799.961 3                     -5528.395 3        21.214
C44        35.000                                                                                                                                    23959403.892 6 124762831.35306     -3386.518 6        38.688                                                                    23959411.519 5 101380057.15605     -2751.891 5        31.721
C08        36.000                                                                                                                                    37772183.478 4 196689663.79104     -1412.893 4        28.389    37772180.021 6 152092941.26706     -1092.919 6        38.078    37772178.727 4 159826554.42104     -1148.730 4        28.294
R09        37.000    19991932.920 7 106755876.48807     -3377.377 7        44.721                                                                    19991924.449 5  83032339.91505     -2626.580 5        31.706
C11        38.000                                                                                                                                    21795954.066 7 113497287.28107       141.655 7        42.273    21795949.434 8  87763414.34808       109.516 8        51.158    21795947.771 7  92225818.63007       114.948 7        42.813
C12        41.000                                                                                                                                    22543320.730 7 117388967.64207     -2580.400 7        46.617    22543316.147 7  90772689.92007     -1995.331 7        46.186    22543315.299 8  95388232.05708     -2096.884 8        48.630
C13        43.000                                                                                                                                    37597263.768 5 195778826.72305     -1139.214 5        35.743    37597263.600 6 151388602.48706      -880.978 6        38.547    37597261.999 5 159086336.79205      -925.823 5        33.281
C38        44.000                                                                                                                                    39014306.999 4 203157841.66304     -1767.347 4        28.663                                                                    39014303.723 5 165082329.98805     -1435.775 5        31.449
C25        45.000                                                                                                                                    23170678.153 5 120655579.00405     -3203.530 5        35.048                                                                    23170620.152 5  98042715.88005     -2603.191 5        35.800
C21        46.000                                                                                                                                    25206629.285 5                      1838.432 5        32.395                                                                    25206628.768 5 106657480.86505      1493.948 5        32.096
C23        47.000                                                                                                                                    23759967.149 7 123724428.36407      -257.370 7        47.175                                                                    23759953.126 4 100536230.80604      -208.880 4        28.389
C43        48.000                                                                                                                                    23027160.910 7 119908551.33307      1202.320 7        42.533                                                                    23027159.799 6  97435483.29106       976.968 6        41.602
C34        52.000                                                                                                                                    21279057.942 7 110805703.85107     -1123.990 7        43.035                                                                    21279056.167 6  90038793.89706      -913.400 6        39.805
I01        56.000   410075596.333 6 306083911.39206     -1709.613 6        40.400
I06        58.000    38606168.327 7 151499021.19607      -613.516 7        43.354
> 2025 01 02 18 30 35.0000000  0 36
G10         1.000    24163193.184 4 126978488.11604      2753.814 4        28.588
G23         2.000    21681991.075 7 113939646.51307      1531.145 7        44.745                                    21681990.182 4  88784108.10304      1193.102 4        24.180    21681988.328 6  88784133.07306      1193.152 6        38.240
G05         4.000    24491494.188 5                     -3979.484 5        31.608
G31         7.000    24865100.329 4                     -4219.376 4        24.902
G18        12.000    20740676.312 7 108993220.08907     -2197.923 7        44.652                                    20740672.732 5  84929660.53105     -1712.670 5        30.604    20740672.572 7  84929860.54707     -1712.595 7        43.672
G27        13.000    22043348.990 6 115838586.40916      1928.503 6        36.095                                    22043355.825 3  90263860.92513      1502.726 3        20.690    22043339.370 6  90263822.03906      1502.639 6        38.532
E27        14.000    28084978.457 5 147587580.18605      2020.829 5        35.186                                                                    28084980.334 6 110211499.18206      1509.207 6        39.291    28084976.459 5 113086563.14505      1548.684 5        31.509
G26        17.000    20789402.433 7 109249092.24207     -2444.226 7        46.068                                    20789401.257 7  85129561.73907     -1904.594 7        42.288    20789401.655 7  85129135.74107     -1904.577 7        42.224
R02        18.000                                                                                                                                    23475610.353 5                     -2167.316 5        32.413
E30        19.000    24343587.251 6 127926403.60306       342.686 6        38.547                                                                    24343594.117 5  95529498.38705       255.694 5        35.219
R20        20.000    20761832.970 5 111022860.37505      1500.197 5        32.910                                                                    20761833.989 6  86351190.90806      1166.863 6        40.317
E02        21.000    23775139.864 7 124939464.19007     -2557.276 7        47.730                                                                    23775139.226 7  93298858.66507     -1909.674 7        47.952    23775138.766 7  95732749.85507     -1959.499 7        45.466
S23        22.000    38062992.656 6 200022403.17906      -865.245 6        40.379
R10        23.000    20212573.497 6 107744397.88406       277.344 6        36.276
E36        24.000    23594493.692 7 123989928.23307     -1932.398 7        43.693                                                                    23594493.323 6  92590048.78906     -1443.135 6        39.943    23594493.656 7  95005423.17507     -1480.688 7        43.566
G16        26.000    20502953.165 7 107743751.06007       -75.760 7        43.329                                    20502946.295 4  83956157.82204       -59.031 4        25.850
S21        27.000    38337056.444 5 201462853.02905      -863.726 5        33.695
C22        28.000                                                                                                                                                                                                                                                                    24637873.693 3                      -379.089 3        19.731
R19        29.000    19776662.787 5 105791814.77705     -2562.649 5        34.981                                                                    19776662.086 7  82282512.19407     -1993.203 7        42.246
S36        31.000    38107429.235 6 200255885.83406      -862.828 6        36.295
E34        32.000    24030510.606 7 126281191.98407       784.771 7        46.819                                                                    24030510.877 7  94300894.60407       586.058 7        46.821    24030506.187 6  96760977.29806       601.342 6        40.179
R11        33.000    23652287.589 4 126390651.22504      3206.918 4        28.910                                                                    23652285.127 5  98303796.89005      2494.345 5        30.302
C44        35.000                                                                                                                                    23962656.692 6 124779765.02506     -3386.895 6        38.748                                                                    23962666.811 5 101393817.17505     -2752.036 5        31.140
C08        36.000                                                                                                                                    37773541.251 4 196696732.41004     -1413.650 4        27.329    37773537.584 6 152098407.18206     -1093.339 6        37.664    37773535.777 4 159832298.24104     -1148.857 4        28.294
R09        37.000    19995094.218 7 106772772.70107     -3381.000 7        44.457                                                                    19995087.452 4  83045481.39904     -2630.144 4        28.986
C11        38.000                                                                                                                                    21795818.002 7 113496582.83107       140.269 7        42.250    21795814.150 8  87762869.62408       108.511 8        50.880    21795812.628 7  92225246.20507       113.836 7        42.851
C12        41.000                                                                                                                                    22545798.423 7 117401872.40907     -2581.392 7        46.054    22545794.755 7  90782668.70107     -1996.071 7        46.142    22545793.174 8  95398718.21208     -2097.666 8        48.219
C13        43.000                                                                                                                                    37598357.720 6 195784525.40006     -1140.057 6        36.000    37598357.243 6 151393009.07106      -881.541 6        38.504    37598356.656 5 159090967.42605      -926.254 5        32.952
C38        44.000                                                                                                                                                                                                                                                                    39016000.937 5 165089510.77105     -1436.315 5        30.830
C25        45.000                                                                                                                                                                                                                                                                    23173698.333 6  98055735.54406     -2604.585 6        37.195
C21        46.000                                                                                                                                    25204862.417 5                      1837.180 5        32.904                                                                    25204866.315 5 106650014.22905      1492.737 5        32.689
C23        47.000                                                                                                                                    23760215.690 7 123725721.86207      -259.913 7        47.096                                                                    23760201.081 4 100537281.87004      -211.166 4        29.327
C43        48.000                                                                                                                                    23026007.154 7 119902541.96307      1201.494 7        43.403                                                                    23026005.891 6  97430600.16206       976.225 6        41.144
C34        52.000                                                                                                                                    21280137.709 7 110811327.44007     -1125.399 7        44.105                                                                    21280136.110 6  90043363.51106      -914.563 6        39.931
I01        56.000   410077774.952 6 306092459.81106     -1709.649 6        40.434
I06        58.000    38606950.102 7 151502088.91507      -613.437 7        43.452
> 2025 01 02 18 30 40.0000000  0 40
G10         1.000    24160572.044 4 126964717.14404      2753.968 4        27.737
G23         2.000    21680535.564 7 113931997.89607      1528.284 7        43.900                                    21680535.223 3  88778148.12903      1190.875 3        23.410    21680531.826 6  88778173.10306      1190.949 6        38.180
G05         4.000    24495275.943 5                     -3981.883 5        30.008
G31         7.000                                                                                                                                                                    24869109.446 3                     -3289.449 3        23.067
G07         8.000    25775260.788 3                      1114.353 3        19.970
G18        12.000    20742768.930 7 109004216.10007     -2200.475 7        45.013                                    20742765.425 5  84938228.86205     -1714.657 5        30.445    20742765.371 7  84938428.87407     -1714.678 7        44.144
G27        13.000    22041514.476 6 115828948.26606      1926.871 6        36.533                                    22041518.467 3  90256350.68903      1501.452 3        20.738    22041505.514 6  90256311.78406      1501.573 6        37.293
E27        14.000    28083056.003 5 147577477.43305      2020.183 5        34.605                                                                    28083057.763 6 110203954.93406      1508.568 6        39.652    28083054.426 5 113078822.11005      1547.756 5        31.615
R03        15.000    22249053.711 4                       514.605 4        25.383
G26        17.000    20791730.026 7 109261321.24307     -2447.445 7        46.643                                    20791728.517 7  85139090.82907     -1907.098 7        42.396    20791728.916 7  85138664.83107     -1907.073 7        42.349
R02        18.000    23478196.775 3                     -2793.093 3        23.581                                                                    23478214.812 4  97443321.84614     -2170.391 4        28.929
E30        19.000    24343262.372 6 127924695.47606       340.530 6        38.312                                                                    24343269.678 5  95528222.83605       254.331 5        35.286    24343309.502 4                       260.829 4        26.922
R20        20.000    20760432.449 5 111015365.75405      1497.760 5        33.748                                                                    20760431.086 6  86345361.74206      1164.929 6        38.288
E02        21.000    23777574.508 7 124952256.21507     -2559.549 7        47.552                                                                    23777573.332 7  93308411.13507     -1911.285 7        47.663    23777573.007 7  95742551.52307     -1961.223 7        45.470
S23        22.000    38063812.434 6 200026730.88406      -865.754 6        40.396
R10        23.000    20212312.303 5 107743022.76505       272.379 5        32.168
E36        24.000    23596333.476 7 123999595.29707     -1934.487 7        43.164                                                                    23596332.788 6  92597267.69506     -1444.418 6        40.131    23596333.407 7  95012830.42407     -1482.210 7        43.333
R18        25.000                                                                                                                                    22387705.964 3                     -3315.296 3        22.533
G16        26.000    20503027.223 7 107744139.11207       -79.476 7        42.155                                    20503020.497 4  83956460.21304       -61.938 4        25.865
S21        27.000    38337877.371 5 201467172.63905      -864.108 5        34.109
C22        28.000                                                                                                                                    24638321.975 5 128298358.57405      -466.921 5        32.742                                                                    24638319.420 3                      -380.926 3        22.095
R19        29.000    19779058.181 5 105804634.47805     -2565.094 5        34.971                                                                    19779058.130 7  82292483.05307     -1995.037 7        42.159
S36        31.000    38108255.417 6 200260201.00206      -863.159 6        36.155
E34        32.000    24029764.978 7 126277273.22507       782.836 7        47.107                                                                    24029765.081 7  94297968.26307       584.608 7        46.816    24029760.397 6  96757974.60206       599.858 6        39.880
R11        33.000    23649282.852 3 126374623.05003      3206.093 3        22.438                                                                    23649285.841 4  98291330.43304      2492.369 4        28.863
C44        35.000                                                                                                                                    23965909.755 6 124796701.63106     -3387.811 6        39.171                                                                    23965921.053 5 101407579.65205     -2753.505 5        30.377
C08        36.000                                                                                                                                    37774898.016 4 196703805.46004     -1415.097 4        25.895    37774896.277 6 152103876.55606     -1094.295 6        37.467    37774893.315 4 159838045.64904     -1149.656 4        26.695
R09        37.000    19998263.021 7 106789688.18107     -3385.123 7        45.609                                                                    19998259.402 4  83058637.92204     -2633.216 4        28.815
C11        38.000                                                                                                                                    21795684.431 7 113495885.84507       138.496 7        42.332    21795680.368 8  87762330.67808       107.100 8        50.847    21795678.801 7  92224679.86907       112.454 7        42.976
C12        41.000                                                                                                                                    22548276.574 7 117414782.71907     -2582.852 7        46.033    22548273.964 7  90792651.77207     -1997.130 7        46.245    22548272.180 7  95409208.90007     -2098.817 7        47.920
C13        43.000                                                                                                                                    37599453.088 6 195790228.55606     -1141.145 6        36.503    37599452.522 6 151397419.09606      -882.387 6        38.423    37599452.175 5 159095601.73505      -927.672 5        32.844
C38        44.000                                                                                                                                                                                                                                                                    39017698.540 5 165096694.17705     -1437.129 5        30.860
C25        45.000                                                                                                                                                                                                                                                                    23176779.233 6  98068763.26906     -2606.663 6        38.532
C21        46.000                                                                                                                                    25203098.487 5                      1835.531 5        32.988                                                                    25203104.236 5 106642553.05805      1491.280 5        32.916
C23        47.000                                                                                                                                    23760466.712 7 123727029.61407      -263.135 7        46.948                                                                    23760453.755 5 100538344.51705      -213.980 5        30.377
C43        48.000                                                                                                                                    23024854.236 7 119896538.16107      1200.137 7        44.215                                                                    23024852.851 6  97425721.59606       975.091 6        41.073
C34        52.000                                                                                                                                    21281218.733 7 110816958.99107     -1127.311 7        44.638                                                                    21281217.857 6  90047939.61406      -916.122 6        40.312
C37        54.000                                                                                                                                    26885737.507 5                      1893.739 5        33.629                                                                    26885726.312 5 113762306.68415      1539.072 5        31.917
I01        56.000   410079953.808 6 306101009.12706     -1710.037 6        40.238
I06        58.000    38607731.788 7 151505156.63607      -613.711 7        43.378
> 2025 01 02 18 30 45.0000000  0 39
G10         1.000    24157951.061 4 126950948.37504      2753.732 4        28.834
G23         2.000    21679081.639 7 113924361.60107      1526.197 7        42.299                                    21679082.331 3  88772197.76003      1189.244 3        21.381    21679079.154 6  88772222.75606      1188.988 6        38.333
G05         4.000    24499062.410 4                     -3983.579 4        29.327
G31         7.000    24873150.216 3                     -4218.981 3        22.971                                                                                                    24873120.679 3                     -3289.251 3        23.143
G29         9.000    23516814.714 5 123581468.25005     -3846.194 5        30.792                                    23516786.942 1  96297312.73201     -2997.187 1         1.778
G18        12.000    20744863.074 7 109015223.40007     -2202.555 7        44.566                                    20744860.277 5  84946805.99405     -1716.271 5        30.143    20744859.991 7  84947005.99207     -1716.253 7        44.509
G27        13.000    22039679.989 6 115819315.85206      1925.870 6        36.291                                    22039681.569 3  90248844.93403      1500.660 3        21.429    22039672.200 5  90248806.00705      1500.836 5        35.538
E27        14.000    28081133.971 5 147567376.65205      2020.017 5        33.677                                                                    28081135.649 6 110196412.16406      1508.394 6        39.628    28081132.953 5 113071082.56305      1547.704 5        31.396
R03        15.000    22248571.362 3                       511.235 3        23.524                                                                    22248585.465 3                       397.176 3        20.429
G26        17.000    20794060.040 7 109273564.61307     -2450.097 7        46.741                                    20794058.537 7  85148631.11907     -1909.165 7        42.567    20794058.556 7  85148205.13007     -1909.190 7        42.419
R02        18.000                                                                                                                                    23480828.288 4  97454181.32414     -2173.257 4        28.559
E30        19.000    24342939.617 6 127922996.76406       338.798 6        38.568                                                                    24342946.974 5  95526954.29705       253.273 5        35.362
R20        20.000    20759035.006 5 111007881.17305      1495.596 5        35.024                                                                    20759032.934 6  86339540.42406      1163.430 6        36.219
E02        21.000    23780010.838 7 124965057.49607     -2561.133 7        47.867                                                                    23780009.264 7  93317970.53707     -1912.524 7        47.161    23780009.105 7  95752360.29307     -1962.472 7        45.831
S23        22.000    38064638.826 6 200031058.62306      -865.534 6        40.565
R10        23.000    20212061.436 5 107741669.58705       268.274 5        30.000
E36        24.000    23598174.423 7 124009270.05107     -1935.710 7        42.758                                                                    23598173.844 6  92604492.38206     -1445.622 6        40.470    23598174.692 7  95020243.57207     -1483.201 7        43.528
G16        26.000    20503104.558 7 107744543.21407       -82.380 7        42.072                                    20503097.923 4  83956775.09904       -64.196 4        26.000
S21        27.000    38338695.964 5 201471492.24205      -864.146 5        33.970
C22        28.000                                                                                                                                    24638773.636 5 128300699.43205      -469.721 5        32.850                                                                    24638769.824 4                      -382.936 4        25.368
R19        29.000    19781457.690 5 105817464.18705     -2566.812 5        35.714                                                                    19781456.363 6  82302461.71606     -1996.481 6        41.685
S36        31.000    38109077.502 6 200264516.27506      -863.165 6        36.336
E34        32.000    24029021.060 7 126273362.33207       781.397 7        47.266                                                                    24029020.839 7  94295047.79307       583.561 7        46.701    24029016.687 6  96754977.95706       598.705 6        39.589
R11        33.000                                                                                                                                    23646286.997 4  98278869.72504      2491.695 4        29.185
C44        35.000                                                                                                                                    23969163.452 6 124813640.88306     -3388.116 6        39.456                                                                    23969174.843 4 101421344.18404     -2753.114 4        29.962
C08        36.000                                                                                                                                                                                                    37776255.175 6 152109349.13306     -1094.816 6        37.297    37776249.225 4 159843796.55404     -1150.765 4        26.192
R09        37.000    20001437.153 7 106806622.41507     -3388.748 7        45.199                                                                    20001426.953 4  83071808.98304     -2635.360 4        29.166
C11        38.000                                                                                                                                    21795552.091 6 113495196.09306       137.192 6        41.778    21795547.943 8  87761797.31008       106.211 8        50.505    21795546.317 7  92224119.38607       111.569 7        43.037
C12        41.000                                                                                                                                    22550756.729 7 117427698.30507     -2583.600 7        45.688    22550754.168 7  90802638.92907     -1997.803 7        46.264    22550752.457 7  95419703.87007     -2099.352 7        47.680
C13        43.000                                                                                                                                    37600549.207 6 195795935.75206     -1141.759 6        36.945    37600549.051 6 151401832.27806      -882.891 6        38.297    37600548.493 5 159100239.31305      -927.684 5        33.048
C38        44.000                                                                                                                                    39019435.228 5 203184362.17805     -1768.642 5        30.023                                                                    39019396.664 5 165103879.98305     -1437.479 5        30.672
C25        45.000                                                                                                                                    23179868.138 6 120703676.25706     -3209.337 6        40.698                                                                    23179861.481 6  98081798.78706     -2607.998 6        39.832
C21        46.000                                                                                                                                    25201336.766 5                      1834.379 5        33.623                                                                    25201342.540 5 106635097.09905      1490.543 5        32.880
C23        47.000                                                                                                                                    23760720.625 7 123728351.34107      -265.671 7        46.245                                                                    23760708.451 5 100539418.49505      -215.698 5        31.600
C43        48.000                                                                                                                                    23023702.050 7 119890539.69007      1199.153 7        44.500                                                                    23023700.826 6  97420847.34106       974.513 6        40.749
C34        52.000                                                                                                                                    21282300.854 7 110822598.19907     -1128.580 7        44.816                                                                    21282301.149 6  90052521.92706      -917.045 6        40.687
C37        54.000                                                                                                                                    26883918.581 5                      1892.592 5        33.814                                                                    26883909.407 5 113754614.70405      1538.085 5        32.449
I01        56.000   410082131.930 6 306109559.09206     -1710.023 6        40.276
I06        58.000    38608513.337 7 151508224.17107      -613.506 7        43.285
> 2025 01 02 18 30 50.0000000  0 40
G10         1.000    24155334.567 4 126937181.60504      2753.023 4        29.886
G23         2.000    21677630.019 6 113916737.67906      1523.543 6        39.976                                    21677631.450 3  88766257.02903      1187.182 3        19.463    21677629.539 6  88766282.02306      1187.103 6        37.887
G05         4.000    24502847.441 4                     -3985.251 4        28.218
G31         7.000                                                                                                                                                                    24877136.313 4                     -3289.313 4        24.346
G07         8.000    25773160.606 4                      1108.234 4        26.922
G18        12.000    20746959.457 7 109026241.97407     -2204.975 7        44.030                                    20746957.213 4  84955391.90404     -1718.161 4        29.336    20746956.436 7  84955591.90007     -1718.187 7        44.018
G27        13.000    22037847.267 6 115809689.18306      1924.549 6        36.813                                    22037846.151 3  90241343.63803      1499.645 3        22.419    22037839.627 5  90241304.71205      1499.505 5        34.100
E27        14.000    28079212.717 5 147557277.83505      2019.538 5        32.719                                                                    28079213.758 6 110188870.84106      1508.190 6        39.835    28079211.229 5 113063344.53005      1547.369 5        31.185
R03        15.000                                                                                                                                    22248116.901 3                       394.572 3        23.429
G26        17.000    20796392.167 7 109285822.34807     -2452.994 7        47.137                                    20796391.243 7  85158182.59407     -1911.422 7        42.605    20796391.008 7  85157756.60207     -1911.576 7        42.455
R02        18.000    23483444.050 5                     -2797.883 5        32.216                                                                    23483449.803 5                     -2176.295 5        30.762
E30        19.000    24342617.758 6 127921307.44406       336.975 6        39.667                                                                    24342625.272 5  95525692.82505       251.476 5        35.133    24342622.884 5  98017659.59315       258.248 5        35.148
R20        20.000    20757637.687 5 111000406.47705      1493.845 5        35.833                                                                    20757638.043 5  86333726.77605      1161.860 5        35.314
E02        21.000    23782448.707 8 124977868.04108     -2563.119 8        48.338                                                                    23782446.880 7  93327536.85207     -1914.022 7        46.924    23782446.771 7  95762176.15907     -1963.985 7        45.530
S23        22.000    38065461.421 6 200035386.04706      -865.645 6        40.634
R10        23.000    20211815.220 5 107740338.45005       263.853 5        33.042
E36        24.000    23600016.952 7 124018952.53407     -1937.353 7        42.554                                                                    23600016.464 6  92611722.80206     -1446.621 6        40.820    23600017.444 7  95027662.64007     -1484.448 7        43.443
G16        26.000    20503185.154 7 107744963.37307       -85.648 7        42.741                                    20503178.404 4  83957102.50404       -66.752 4        26.527
S21        27.000    38339527.033 5 201475811.80405      -863.929 5        34.348
C22        28.000                                                                                                                                    24639222.727 5 128303054.45105      -472.714 5        33.778                                                                    24639221.597 4                      -384.113 4        25.128
R19        29.000    19783859.695 6 105830303.89606     -2568.928 6        36.159                                                                    19783857.302 6  82312448.16806     -1998.209 6        41.604
S36        31.000    38109895.353 6 200268832.09906      -863.234 6        36.461
E34        32.000    24028278.376 7 126269459.30707       779.730 7        47.426                                                                    24028278.064 7  94292133.18807       582.293 7        46.640    24028275.096 6  96751987.31206       597.553 6        39.147
R11        33.000    23643302.133 3                      3207.716 3        20.762                                                                    23643286.864 5  98266414.73605      2490.213 5        30.272
R16        34.000    23600542.785 3                     -5531.452 3        20.333
C44        35.000                                                                                                                                    23972417.653 6 124830582.78606     -3388.710 6        38.928                                                                    23972429.716 4 101435110.94804     -2753.312 4        29.327
C08        36.000                                                                                                                                    37777611.630 3                     -1416.098 3        22.495    37777615.283 6 152114824.94606     -1095.529 6        37.236    37777607.541 4 159849550.67404     -1151.164 4        26.216
R09        37.000    20004610.437 7                     -3392.511 7        42.339
C11        38.000                                                                                                                                    21795419.378 6 113494513.54006       135.688 6        40.796    21795416.851 8  87761269.52908       104.888 8        50.520    21795415.396 7  92223564.79507       110.211 7        43.484
C12        41.000                                                                                                                                    22553237.847 7 117440619.17907     -2584.803 7        45.564    22553235.290 7  90812630.15807     -1998.746 7        46.548    22553233.908 7  95430203.14307     -2100.443 7        47.613
C13        43.000                                                                                                                                    37601645.288 6 195801647.08706     -1142.704 6        38.117    37601645.232 6 151406248.65006      -883.898 6        38.471    37601645.398 5 159104880.26305      -928.953 5        32.988
C38        44.000                                                                                                                                    39021128.177 4 203193208.23104     -1769.344 4        29.839                                                                    39021095.682 5 165111068.15405     -1438.295 5        31.245
C25        45.000                                                                                                                                    23182946.537 6 120719727.97206     -3211.450 6        38.877                                                                    23182944.313 6  98094842.06306     -2609.553 6        40.646
C21        46.000                                                                                                                                    25199575.788 5                      1833.274 5        32.784                                                                    25199582.015 5 106627646.38405      1489.512 5        31.140
C23        47.000                                                                                                                                    23760976.790 7 123729687.05207      -268.648 7        45.315                                                                    23760965.915 5 100540503.87105      -218.409 5        33.006
C43        48.000                                                                                                                                    23022551.098 7 119884546.52207      1198.024 7        44.775                                                                    23022549.690 6  97415977.42706       973.382 6        40.656
C34        52.000                                                                                                                                    21283384.689 7 110828245.09607     -1130.284 7        44.986                                                                    21283386.024 6  90057110.50006      -918.449 6        41.321
C37        54.000                                                                                                                                    26882102.087 5                      1890.847 5        33.557                                                                    26882092.615 5 113746928.28205      1536.477 5        32.222
I01        56.000   410084311.730 6 306118109.57806     -1710.211 6        40.296
I06        58.000    38609295.353 7 151511291.50307      -613.555 7        43.299
> 2025 01 02 18 30 55.0000000  0 41
G10         1.000    24152715.698 4 126923417.19904      2752.419 4        29.810
G23         2.000    21676181.374 6 113909126.35206      1520.862 6        38.021                                    21676182.993 3  88760326.08203      1185.107 3        18.269    21676180.719 6  88760351.10206      1185.031 6        37.119
G05         4.000    24506632.138 4                     -3987.405 4        24.767                                                                                                    24506619.352 3                     -3107.022 3        22.190
G31         7.000    24881153.951 3                     -4217.505 3        20.690                                                                                                    24881153.819 4                     -3288.525 4        24.857
G07         8.000    25772105.410 4                      1105.919 4        29.251
G29         9.000                                                                                                                                                                    23524080.453 4                     -2998.491 4        24.135
G18        12.000    20749058.552 7 109037272.03507     -2207.135 7        42.387                                    20749056.126 4  84963986.77004     -1719.845 4        28.502    20749055.018 7  84964186.74807     -1719.883 7        42.692
G27        13.000    22036023.609 6 115800068.45906      1923.627 6        37.089                                    22036012.487 3  90233846.98203      1498.924 3        22.667    22036010.747 5  90233808.02805      1498.899 5        33.072
E27        14.000    28077291.391 5 147547181.19305      2019.289 5        31.011                                                                    28077292.495 6 110181331.15106      1507.639 6        39.586    28077290.023 5 113055608.13505      1547.057 5        31.585
R03        15.000    22247652.900 6 119093431.20416       502.704 6        36.302
G26        17.000    20798727.529 8 109298094.62708     -2455.863 8        48.096                                    20798726.700 7  85167745.40707     -1913.659 7        42.792    20798726.208 7  85167319.41707     -1913.688 7        42.425
R02        18.000    23486069.858 5                     -2801.877 5        30.045                                                                    23486085.883 5  97475944.17515     -2179.330 5        30.589
E30        19.000    24342297.799 6 127919627.73506       334.879 6        39.898                                                                    24342302.982 5  95524438.51105       250.181 5        34.419    24342300.653 6  98016372.54506       256.839 6        36.382
R20        20.000    20756240.300 6 110992942.00806      1491.925 6        36.268                                                                    20756243.142 6  86327921.07506      1160.206 6        38.919
E02        21.000    23784888.369 8 124990688.05808     -2564.973 8        48.278                                                                    23784886.252 7  93337110.24907     -1915.451 7        46.756    23784886.060 7  95771999.28407     -1965.358 7        45.744
S23        22.000    38066285.894 6 200039713.69906      -865.534 6        40.791
R10        23.000    20211569.789 5 107739029.46105       259.293 5        35.695
E36        24.000    23601860.732 7 124028642.94507     -1938.964 7        42.351                                                                    23601860.597 6  92618959.16506     -1447.961 6        41.311    23601861.551 7  95035087.77307     -1485.698 7        43.767
R18        25.000    22399663.995 5                     -4265.492 5        32.946                                                                    22399731.650 5                     -3317.429 5        32.784
G16        26.000    20503267.864 7 107745399.91307       -88.993 7        44.190                                    20503261.902 4  83957442.66804       -69.352 4        27.808
S21        27.000    38340347.147 5 201480131.48905      -863.994 5        34.467
C22        28.000                                                                                                                                    24639674.035 5 128305423.80605      -475.445 5        34.571                                                                    24639674.639 4                      -386.198 4        24.962
R19        29.000    19786261.532 5 105843153.81505     -2570.944 5        35.967                                                                    19786260.001 7  82322442.55807     -1999.755 7        42.354
S36        31.000    38110714.554 6 200273147.64906      -863.292 6        36.473
E34        32.000    24027536.865 7 126265564.35407       778.163 7        46.790                                                                    24027536.721 7  94289224.61207       581.133 7        46.489    24027534.577 6  96749002.86906       596.339 6        39.294
R11        33.000    23640309.531 3                      3201.147 3        21.595                                                                    23640290.406 5  98253965.63105      2489.255 5        32.641
C44        35.000                                                                                                                                    23975672.524 6 124847527.53606     -3389.039 6        38.366                                                                    23975683.093 5 101448880.03705     -2754.714 5        30.158
C08        36.000                                                                                                                                    37778974.921 3                     -1417.420 3        21.881    37778975.793 6 152120304.13806     -1096.306 6        37.369    37778966.206 4 159855308.60904     -1153.362 4        26.096
R09        37.000    20007784.937 5 106840547.29615     -3396.454 5        35.290
C11        38.000                                                                                                                                    21795288.866 6 113493838.38906       134.262 6        39.535    21795287.035 8  87760747.45908       103.785 8        50.429    21795285.738 7  92223016.19407       108.910 7        43.520
C12        41.000                                                                                                                                    22555720.956 7 117453545.52607     -2585.842 7        45.877    22555717.232 7  90822625.61307     -1999.560 7        47.222    22555716.408 7  95440706.85807     -2101.358 7        47.469
C13        43.000                                                                                                                                    37602742.661 6 195807362.68706     -1143.744 6        38.676    37602743.508 6 151410668.30706      -884.303 6        38.538    37602742.704 5 159109524.64605      -929.529 5        32.341
C38        44.000                                                                                                                                    39022825.245 5 203202057.46805     -1770.226 5        30.408                                                                    39022794.925 5 165118258.84405     -1438.503 5        30.400
C25        45.000                                                                                                                                    23186023.071 6 120735789.48606     -3213.304 6        37.070                                                                    23186028.123 6  98107893.29906     -2611.220 6        40.710
C21        46.000                                                                                                                                    25197814.702 5                      1832.030 5        32.144                                                                    25197822.892 4 106620201.09904      1488.376 4        28.019
C23        47.000                                                                                                                                    23761235.132 7 123731036.95607      -271.437 7        44.509                                                                    23761225.975 5 100541600.75405      -220.735 5        33.940
C43        48.000                                                                                                                                    23021401.378 7 119878558.87207      1196.979 7        44.775                                                                    23021399.644 6  97411111.98106       972.491 6        40.164
C34        52.000                                                                                                                                    21284470.616 7 110833899.86007     -1131.726 7        45.630                                                                    21284472.253 6  90061705.45906      -919.841 6        41.168
C37        54.000                                                                                                                                    26880284.967 5 139972707.75015      1889.775 5        33.126                                                                    26880277.411 5 113739247.61205      1535.178 5        31.698
I01        56.000   410086491.267 6 306126660.86306     -1710.326 6        40.083
I06        58.000    38610077.044 7 151514358.79907      -613.541 7        43.346
> 2025 01 02 18 31  0.0000000  0 40
G10         1.000    24150095.310 4 126909654.64904      2752.706 4        28.663
G23         2.000    21674735.346 6 113901527.18106      1518.636 6        36.397                                    21674736.866 2  88754404.64102      1183.366 2        16.264    21674732.503 6  88754429.64306      1183.602 6        36.866
G05         4.000    24510424.118 3                     -3989.494 3        22.476                                                                                                    24510419.802 3                     -3108.307 3        23.962
G31         7.000    24885175.907 3                     -4221.044 3        23.486                                                                                                    24885172.981 4                     -3288.458 4        24.481
G29         9.000                                                                                                                                                                    23527746.455 4                     -2998.269 4        25.248
G18        12.000    20751160.409 6 109048313.15606     -2209.466 6        41.094                                    20751156.925 4  84972590.23904     -1721.662 4        27.880    20751156.113 6  84972790.21006     -1721.610 6        41.561
G27        13.000    22034204.119 5 115790453.30205      1922.566 5        32.467                                    22034180.405 3  90226354.62303      1498.083 3        19.940    22034179.917 5  90226315.73105      1497.782 5        32.754
E27        14.000    28075370.789 5 147537086.32005      2018.237 5        30.332                                                                    28075371.543 6 110173792.73906      1507.621 6        39.856    28075369.180 5 113047873.09705      1546.743 5        31.879
R03        15.000    22247187.474 6 119090926.81206       498.968 6        40.286
G26        17.000    20801065.743 8 109310381.04508     -2458.675 8        48.559                                    20801064.872 7  85177319.23907     -1915.853 7        42.808    20801064.670 7  85176893.24007     -1915.779 7        42.597
R02        18.000    23488698.694 5                     -2805.612 5        30.279                                                                    23488714.315 5                     -2181.539 5        30.702
E30        19.000    24341979.376 6 127917957.19106       333.083 6        40.403                                                                    24341979.765 5  95523191.04505       248.746 5        33.760    24341983.668 6  98015092.53906       255.498 6        37.081
R20        20.000    20754844.361 5 110985487.36805      1489.903 5        34.881                                                                    20754850.098 6  86322123.02206      1158.902 6        41.552
E02        21.000    23787329.820 8 125003517.13708     -2566.793 8        48.311                                                                    23787327.383 7  93346690.39407     -1916.770 7        46.404    23787327.139 7  95781829.34107     -1966.623 7        45.821
S23        22.000    38067111.557 6 200044041.23206      -865.492 6        40.837
R10        23.000    20211326.241 6 107737741.95506       255.471 6        36.231
E36        24.000    23603706.429 7 124038340.83507     -1940.359 7        43.105                                                                    23603706.295 6  92626201.09506     -1448.932 6        41.619    23603707.004 7  95042518.64107     -1486.794 7        43.871
R18        25.000                                                                                                                                    22403730.318 5                     -3317.616 5        32.359
G16        26.000    20503354.429 7 107745852.31907       -92.100 7        45.242                                    20503348.361 4  83957795.20304       -71.769 4        29.147
S21        27.000    38341171.584 5 201484451.10305      -864.179 5        34.071
C22        28.000                                                                                                                                    24640126.069 5 128307807.17105      -477.888 5        33.078                                                                    24640131.273 3                      -388.179 3        23.505
R19        29.000    19788664.043 6 105856013.48406     -2572.923 6        36.318                                                                    19788664.025 7  82332444.50107     -2001.171 7        42.510
S36        31.000    38111538.625 6 200277462.63806      -863.218 6        36.499
E34        32.000    24026796.745 7 126261677.04207       776.679 7        45.890                                                                    24026796.867 7  94286321.75107       580.024 7        46.300    24026794.944 6  96746024.27906       595.098 6        39.045
R11        33.000    23637316.692 4                      3198.669 4        24.992                                                                    23637295.425 5  98241522.20105      2488.051 5        34.395
C44        35.000                                                                                                                                    23978927.077 6 124864474.74306     -3389.636 6        37.543                                                                    23978936.072 5 101462650.99105     -2753.901 5        30.732
C08        36.000                                                                                                                                    37780338.108 3                     -1421.292 3        20.357    37780337.195 6 152125786.38606     -1096.917 6        37.414    37780326.719 4 159861069.51104     -1152.850 4        26.515
R09        37.000    20010958.791 5 106857537.71215     -3399.762 5        30.551                                                                    20010980.913 5                     -2644.355 5        31.208
C11        38.000                                                                                                                                    21795158.990 6 113493170.24906       132.847 6        37.890    21795158.409 8  87760230.79908       102.788 8        50.359    21795157.491 7  92222473.24507       108.099 7        43.945
C12        41.000                                                                                                                                    22558205.093 7 117466476.90807     -2586.801 7        46.221    22558200.397 8  90832624.98008     -2000.287 8        48.091    22558200.024 7  95451214.63607     -2101.843 7        47.686
C13        43.000                                                                                                                                    37603841.351 6 195813082.22006     -1144.339 6        39.465    37603841.961 6 151415091.00506      -884.842 6        38.850    37603841.024 5 159114172.23605      -929.966 5        32.096
C38        44.000                                                                                                                                    39024526.378 5 203210909.34305     -1770.234 5        30.891                                                                    39024495.036 5 165125451.70705     -1438.901 5        30.234
C25        45.000                                                                                                                                    23189107.941 6 120751860.29506     -3215.129 6        37.346                                                                    23189113.181 6  98120952.08706     -2612.483 6        40.832
C21        46.000                                                                                                                                    25196056.822 5                      1830.727 5        31.970                                                                    25196066.008 3                      1486.399 3        23.886
C23        47.000                                                                                                                                    23761496.201 7 123732400.61707      -274.167 7        43.979                                                                    23761488.517 5 100542708.78905      -222.647 5        35.352
C43        48.000                                                                                                                                    23020252.217 7 119872576.33007      1195.991 7        44.454                                                                    23020250.508 6  97406250.66906       971.839 6        40.360
C34        52.000                                                                                                                                    21285557.926 7 110839562.07807     -1133.200 7        46.241                                                                    21285559.877 6  90066306.43206      -920.728 6        41.530
C37        54.000                                                                                                                                    26878471.881 5 139963262.17605      1888.474 5        33.737                                                                    26878463.382 5 113731572.32405      1534.512 5        32.359
I01        56.000   410088669.547 6 306135212.61606     -1710.581 6        40.188
I06        58.000    38610858.271 7 151517425.72807      -613.384 7        43.281
> 2025 01 02 18 31  5.0000000  0 38
G10         1.000    24147474.004 4 126895894.08404      2751.614 4        26.287
G23         2.000    21673292.703 6 113893940.25806      1516.177 6        36.348                                    21673293.046 2  88748492.75502      1181.422 2        14.619    21673288.533 6  88748517.73106      1181.594 6        36.231
G05         4.000    24514226.706 3                     -3989.590 3        23.124
G31         7.000    24889191.710 4                     -4220.205 4        26.551                                                                                                    24889190.224 3                     -3288.879 3        23.086
G29         9.000    23531405.693 5 123658427.00005     -3849.195 5        33.629                                                                                                    23531414.943 4                     -2999.712 4        27.737
G18        12.000    20753264.018 6 109059365.34506     -2211.595 6        40.715                                    20753259.733 4  84981202.34104     -1723.319 4        27.210    20753260.014 6  84981402.31806     -1723.269 6        40.470
G27        13.000                                                                                                                                                                    22032351.243 5  90218827.73505      1496.771 5        32.114
E27        14.000    28073450.330 4 147526993.24704      2018.250 4        29.232                                                                    28073450.764 6 110166255.69406      1507.208 6        39.895    28073448.571 5 113040139.37505      1547.019 5        32.395
R03        15.000    22246728.689 6 119088442.33516       494.962 6        39.976
G26        17.000    20803406.290 8 109322681.63008     -2461.549 8        48.580                                    20803405.744 7  85186904.11407     -1918.091 7        42.770    20803405.020 7  85186478.11707     -1918.211 7        42.432
R02        18.000    23491329.014 4                     -2809.806 4        25.383                                                                    23491344.250 5  97497764.91215     -2185.148 5        31.864
E30        19.000    24341662.996 6 127916295.85606       331.331 6        40.241                                                                    24341662.411 5  95521950.44105       247.503 5        34.071    24341668.611 6  98013819.58506       254.111 6        37.055
R20        20.000    20753450.082 5 110978042.57205      1488.204 5        33.868                                                                    20753457.871 7  86316332.68707      1157.366 7        43.009
E02        21.000    23789772.778 8 125016355.30308     -2568.601 8        48.036                                                                    23789770.342 7  93356277.33107     -1918.136 7        46.302    23789769.985 7  95791666.37307     -1968.156 7        45.798
S23        22.000    38067931.076 6 200048368.67906      -865.490 6        40.529
R10        23.000    20211087.497 5 107736476.20405       250.962 5        35.686
E36        24.000    23605553.595 7 124048046.26907     -1941.883 7        44.030                                                                    23605553.228 7  92633448.65607     -1449.995 7        42.047    23605553.907 7  95049955.28207     -1487.946 7        44.102
R18        25.000                                                                                                                                    22407722.896 5                     -3318.003 5        30.045
G16        26.000    20503443.110 7 107746320.67907       -95.237 7        46.367                                    20503437.633 5  83958160.16605       -74.212 5        30.483
S21        27.000    38341989.829 5 201488770.69405      -863.937 5        34.238
R19        29.000    19791068.490 5 105868882.89905     -2574.910 5        34.676                                                                    19791069.835 7  82342454.06407     -2002.668 7        42.550
S36        31.000    38112363.058 6 200281778.04506      -863.134 6        36.386
E34        32.000    24026058.514 7 126257797.42007       775.163 7        44.730                                                                    24026058.433 7  94283424.63407       578.849 7        46.041    24026056.764 6  96743051.58606       593.974 6        39.973
R11        33.000    23634322.069 4                      3197.983 4        27.018                                                                    23634301.680 5  98229084.39015      2486.812 5        35.329
C44        35.000                                                                                                                                    23982183.039 6 124881424.44306     -3390.142 6        36.473                                                                    23982189.317 5 101476424.02805     -2754.800 5        31.962
C08        36.000                                                                                                                                    37781702.405 3                     -1422.955 3        22.019    37781698.941 6 152131271.69906     -1097.357 6        37.974    37781689.528 4 159866833.76204     -1153.134 4        26.814
C11        38.000                                                                                                                                    21795030.212 6 113492509.13706       131.419 6        36.174    21795031.296 8  87759719.59008       101.652 8        50.435    21795030.605 7  92221936.05407       106.765 7        44.460
C12        41.000                                                                                                                                    22560689.709 7 117479413.36407     -2587.791 7        46.565    22560684.754 8  90842628.28008     -2001.116 8        49.100    22560684.492 7  95461726.56807     -2102.830 7        47.964
C13        43.000                                                                                                                                    37604941.106 6 195818805.65306     -1145.060 6        39.724    37604940.816 6 151419516.72906      -885.368 6        38.970    37604939.716 5 159118822.95905      -930.061 5        32.353
C38        44.000                                                                                                                                    39026228.572 5 203219764.04205     -1771.408 5        31.275                                                                    39026195.486 5 165132646.82205     -1439.482 5        30.626
C25        45.000                                                                                                                                    23192197.883 6 120767940.48406     -3217.104 6        38.180                                                                    23192199.774 6  98134018.52906     -2614.058 6        40.946
C21        46.000                                                                                                                                    25194299.179 5                      1829.300 5        31.275
C23        47.000                                                                                                                                    23761760.766 7 123733778.08707      -276.858 7        43.735                                                                    23761753.806 6 100543828.11206      -225.073 6        36.378
C43        48.000                                                                                                                                    23019104.261 7 119866598.96107      1195.006 7        43.801                                                                    23019102.505 6  97401393.56006       970.937 6        40.429
C34        52.000                                                                                                                                    21286646.169 7 110845231.78707     -1134.746 7        46.502                                                                    21286648.708 6  90070913.53006      -922.079 6        41.874
C37        54.000                                                                                                                                    26876665.086 5 139953823.34205      1887.158 5        33.245                                                                    26876650.877 5 113723902.52905      1533.304 5        32.317
I01        56.000   410090848.346 6 306143764.85006     -1710.487 6        39.949
I06        58.000    38611639.545 7 151520492.33907      -613.332 7        43.352
> 2025 01 02 18 31 10.0000000  0 41
G10         1.000    24144855.829 4 126882136.21304      2750.875 4        27.928
G23         2.000    21671850.439 5 113886366.32005      1512.986 5        35.757                                    21671851.883 2  88742590.98902      1178.945 2        13.758    21671846.973 5  88742615.96605      1179.216 5        35.243
G05         4.000    24518028.703 3                     -3992.817 3        23.886                                                                                                    24518040.189 4                     -3111.588 4        25.985
G31         7.000    24893215.111 4                     -4220.165 4        27.713                                                                                                    24893207.691 3                     -3287.769 3        22.438
G07         8.000    25768916.119 4                      1099.622 4        29.839
G29         9.000    23535073.953 5 123677676.75205     -3850.783 5        32.042                                                                                                    23535085.090 4                     -3000.113 4        29.611
G18        12.000    20755369.618 7 109070429.40307     -2214.375 7        42.144                                    20755364.718 4  84989823.67804     -1725.488 4        27.305    20755365.987 6  84990023.64806     -1725.404 6        40.286
G27        13.000    22030521.359 4 115771240.62714      1919.264 4        28.919                                                                                                    22030524.862 5  90211344.68205      1496.043 5        33.659
E27        14.000    28071529.938 4 147516902.76004      2017.724 4        28.938                                                                    28071530.619 6 110158720.57906      1506.719 6        39.646    28071528.449 5 113032407.72605      1546.134 5        32.635
R03        15.000    22246271.075 6 119085978.42616       490.374 6        36.646                                                                    22246305.581 3                       381.798 3        22.324
G26        17.000    20805749.499 8 109334997.14508     -2464.965 8        48.479                                    20805749.455 7  85196500.62307     -1920.751 7        42.821    20805748.537 7  85196074.62207     -1920.759 7        42.662
R02        18.000    23493959.831 3                     -2812.994 3        22.781                                                                    23493981.541 5  97508697.55115     -2188.486 5        30.589
E30        19.000    24341348.531 6 127914644.55206       328.962 6        39.604                                                                    24341349.620 5  95520717.34305       245.620 5        34.405    24341354.537 6  98012554.34106       252.062 6        36.847
R20        20.000    20752058.129 5 110970608.46305      1485.466 5        31.713                                                                    20752066.413 7  86310550.60107      1155.322 7        43.592
E02        21.000    23792217.517 7 125029203.32107     -2570.924 7        47.632                                                                    23792215.106 7  93365871.62607     -1919.857 7        46.033    23792214.706 7  95801510.94807     -1969.953 7        45.746
S23        22.000    38068756.653 6 200052696.65806      -865.954 6        40.365
R10        23.000    20210851.097 5 107735233.12705       245.935 5        33.329
E36        24.000    23607402.106 7 124057759.98207     -1943.821 7        45.081                                                                    23607401.649 7  92640702.42407     -1451.701 7        42.555    23607402.385 7  95057398.27307     -1489.507 7        43.818
R18        25.000                                                                                                                                    22411722.168 4                     -3318.548 4        26.419
G16        26.000    20503535.424 7 107746805.76207       -99.011 7        47.261                                    20503530.008 5  83958538.15705       -77.156 5        31.811
S21        27.000    38342818.747 5 201493090.88205      -864.614 5        34.781
C22        28.000                                                                                                                                    24641027.366 5 128312617.00405      -484.263 5        33.629
R19        29.000    19793475.619 5 105881762.97205     -2577.363 5        34.567                                                                    19793477.542 7  82352471.89107     -2004.707 7        42.753
S36        31.000    38113181.410 6 200286094.30406      -863.622 6        36.363
E34        32.000    24025322.057 7 126253926.27107       773.026 7        43.719                                                                    24025321.791 7  94280533.83807       577.291 7        45.902    24025320.592 6  96740085.37806       592.432 6        40.124
R11        33.000    23631333.978 4                      3195.766 4        27.377                                                                    23631310.885 5  98216652.80305      2485.560 5        35.995
C44        35.000                                                                                                                                    23985439.544 6 124898377.35406     -3391.172 6        36.427                                                                    23985444.011 5 101490199.67505     -2755.943 5        32.629
C08        36.000                                                                                                                                    37783067.484 3                     -1421.640 3        23.181    37783061.765 6 152136760.64406     -1098.380 6        38.423    37783054.182 4 159872601.81004     -1154.315 4        27.653
R09        37.000    20017365.269 6 106891575.09606     -3407.860 6        36.231                                                                    20017336.980 5                     -2650.802 5        35.271
C11        38.000                                                                                                                                    21794904.961 5 113491855.81505       129.666 5        35.710    21794905.670 8  87759214.41408       100.175 8        50.385    21794905.294 7  92221405.16807       105.344 7        45.005
C12        41.000                                                                                                                                    22563175.004 7 117492355.69607     -2589.417 7        46.883    22563170.547 8  90852636.11708     -2002.279 8        49.648    22563170.073 8  95472243.26708     -2104.020 8        48.082
C13        43.000                                                                                                                                    37606041.410 6 195824533.76806     -1146.352 6        40.021    37606040.969 6 151423946.07206      -886.440 6        39.159    37606038.952 5 159123477.52305      -931.538 5        31.977
C38        44.000                                                                                                                                    39027930.891 5 203228622.19305     -1772.193 5        31.411                                                                    39027897.132 5 165139844.80505     -1440.142 5        30.777
C25        45.000                                                                                                                                    23195289.465 6 120784030.83506     -3219.543 6        38.970                                                                    23195288.197 6  98147093.21806     -2616.013 6        40.396
C21        46.000                                                                                                                                    25192543.982 5                      1827.932 5        31.306
C23        47.000                                                                                                                                    23762028.454 7 123735170.17207      -280.273 7        44.114                                                                    23762021.922 6 100544959.26606      -227.552 6        37.187
C43        48.000                                                                                                                                    23017958.175 7 119860627.49607      1193.325 7        43.287                                                                    23017955.629 6  97396541.23706       969.726 6        40.546
C34        52.000                                                                                                                                    21287736.065 7 110850909.77107     -1136.797 7        46.612                                                                    21287738.681 6  90075527.32906      -923.630 6        41.814
C37        54.000                                                                                                                                                                                                                                                                    26874839.466 5 113716238.84505      1531.537 5        32.204
I01        56.000   410093028.101 6 306152318.19006     -1711.092 6        39.796
I06        58.000    38612421.403 7 151523559.20207      -613.618 7        43.196
> 2025 01 02 18 31 15.0000000  0 40
G10         1.000    24142239.317 4 126868380.36704      2751.387 4        29.175
G23         2.000    21670411.166 5 113878804.71005      1511.093 5        34.919                                    21670413.071 1  88736698.80901      1177.453 1        11.556    21670407.151 5  88736723.81505      1177.524 5        33.395
G05         4.000                                                                                                                                                                    24521839.744 4                     -3112.621 4        26.132
G31         7.000                                                                                                                                                                    24897211.792 3                     -3289.993 3        18.627
G07         8.000    25767881.198 5                      1097.414 5        31.185
G29         9.000    23538740.286 5 123696930.25805     -3850.963 5        31.721                                                                                                    23538752.875 4                     -3000.833 4        29.877
G18        12.000    20757477.527 7 109081504.62107     -2216.194 7        43.410                                    20757471.791 4  84998453.72104     -1726.901 4        27.198    20757474.107 6  84998653.66906     -1726.954 6        40.143
G27        13.000    22028704.591 5 115761643.07405      1918.545 5        31.185                                    22028685.384 2  90203778.03812      1494.969 2        16.755    22028700.274 5  90203866.04805      1495.302 5        35.495
E27        14.000    28069609.707 4 147506814.17104      2017.746 4        28.455                                                                    28069610.975 6 110151186.90906      1506.453 6        39.643    28069608.475 5 113024677.50805      1545.898 5        32.796
R03        15.000    22245809.383 5 119083534.24205       487.022 5        31.336                                                                    22245838.967 3                       378.143 3        20.833
G26        17.000    20808095.633 8 109347326.91208     -2467.438 8        48.127                                    20808095.872 7  85206108.23307     -1922.680 7        42.438    20808094.711 7  85205682.22507     -1922.702 7        42.483
E30        19.000    24341035.394 6 127913002.57806       327.555 6        38.444                                                                    24341038.886 5  95519491.19105       244.652 5        34.600    24341040.087 6  98011296.22606       250.965 6        36.310
R20        20.000    20750669.157 5 110963184.24905      1483.956 5        30.596                                                                    20750678.236 7  86304776.25507      1154.154 7        44.825
E02        21.000    23794663.733 7 125042060.51507     -2572.407 7        47.298                                                                    23794661.830 7  93375472.76907     -1920.924 7        45.980    23794661.291 7  95811362.54707     -1971.063 7        45.660
S23        22.000    38069579.888 6 200057024.54306      -865.620 6        40.589
R10        23.000    20210622.657 5 107734011.93905       241.765 5        34.624
E36        24.000    23609251.776 7 124067481.31707     -1945.121 7        46.219                                                                    23609251.460 7  92647961.86407     -1452.533 7        42.836    23609252.058 7  95064847.09307     -1490.376 7        43.776
G16        26.000    20503630.534 8 107747306.87508      -101.901 8        48.486                                    20503625.459 5  83958928.64505       -79.409 5        33.042
S21        27.000    38343641.109 5 201497411.14505      -864.305 5        34.886
C22        28.000                                                                                                                                    24641497.658 5 128315043.37105      -486.743 5        33.287                                                                    24641501.861 3                      -395.485 3        23.257
R19        29.000    19795885.167 5 105894653.06905     -2579.024 5        35.162                                                                    19795887.366 7  82362497.50007     -2005.915 7        43.266
S36        31.000    38114002.552 6 200290410.75506      -863.293 6        36.287
E34        32.000    24024587.487 7 126250062.90007       771.781 7        43.331                                                                    24024586.607 7  94277648.84807       576.462 7        45.434    24024586.038 6  96737125.14806       591.394 6        40.610
R11        33.000    23628344.122 4                      3194.522 4        27.964                                                                    23628320.342 6  98204226.99716      2484.357 6        36.628
R16        34.000    23626405.934 3                     -5529.753 3        19.463
C44        35.000                                                                                                                                    23988697.049 6 124915332.78806     -3391.477 6        36.144                                                                    23988699.410 5 101503977.35905     -2755.674 5        32.838
C08        36.000                                                                                                                                    37784431.038 4                     -1420.199 4        24.692    37784425.933 6 152142252.80406     -1098.729 6        38.423    37784418.606 4 159878373.21904     -1154.274 4        28.379
R09        37.000    20020550.967 6 106908622.33106     -3411.370 6        37.255                                                                    20020531.317 6  83151058.52316     -2653.213 6        38.568
C11        38.000                                                                                                                                    21794782.157 5 113491209.59905       128.398 5        35.176    21794781.591 8  87758714.73308        99.355 8        50.155    21794781.414 7  92220880.10407       104.176 7        45.472
C12        41.000                                                                                                                                    22565660.924 7 117505303.18707     -2590.071 7        47.028    22565657.457 8  90862647.94408     -2002.865 8        49.802    22565656.489 8  95482764.17508     -2104.752 8        48.288
C13        43.000                                                                                                                                    37607141.764 6 195830265.95306     -1147.101 6        40.114    37607141.946 6 151428378.56606      -886.725 6        39.162    37607140.228 5 159128135.40205      -932.157 5        31.562
C38        44.000                                                                                                                                    39029633.629 5 203237483.18005     -1772.378 5        31.962                                                                    39029598.336 5 165147045.06805     -1440.405 5        30.815
C25        45.000                                                                                                                                    23198383.864 6 120800130.61306     -3220.935 6        40.117                                                                    23198379.145 6  98160175.61806     -2617.414 6        40.384
C21        46.000                                                                                                                                    25190791.057 5                      1826.656 5        30.385                                                                    25190799.474 3                      1485.104 3        22.076
C23        47.000                                                                                                                                    23762299.297 7 123736576.13207      -282.593 7        44.430                                                                    23762292.289 6 100546101.74106      -229.731 6        38.024
C43        48.000                                                                                                                                    23016812.786 7 119854661.26307      1192.666 7        43.065                                                                    23016809.962 6  97391693.20006       968.914 6        40.975
C34        52.000                                                                                                                                    21288828.301 7 110856595.32507     -1137.871 7        46.928                                                                    21288829.835 6  90080147.31306      -924.712 6        41.347
C37        54.000                                                                                                                                                                                                                                                                    26873029.220 5 113708580.78505      1531.041 5        32.479
I01        56.000   410095208.362 6 306160872.12306     -1710.738 6        39.556
I06        58.000    38613202.493 7 151526625.79607      -613.381 7        43.187
> 2025 01 02 18 31 20.0000000  0 40
G10         1.000    24139625.163 5 126854626.60705      2750.797 5        31.260
G23         2.000    21668973.939 5 113871255.39305      1508.722 5        34.933                                    21668976.669 1  88730816.26601      1175.647 1         9.238    21668971.067 5  88730841.23605      1175.296 5        33.491
G05         4.000                                                                                                                                                                    24525640.785 4                     -3114.162 4        25.158
G07         8.000    25766842.682 5                      1095.547 5        32.144
G29         9.000    23542406.028 5 123716187.40405     -3851.469 5        33.162                                    23542406.236 1  96402216.30811     -3001.140 1         8.286    23542418.546 4                     -3001.012 4        29.071
G18        12.000    20759586.657 7 109092590.88507     -2218.267 7        44.798                                    20759580.944 4  85007092.35604     -1728.519 4        27.269    20759582.844 6  85007292.31406     -1728.560 6        39.538
G27        13.000    22026882.338 5 115752051.01705      1918.063 5        30.898                                    22026863.601 2  90196303.77702      1494.596 2        16.792    22026875.250 6  90196391.80606      1494.617 6        36.185
E27        14.000    28067689.293 4 147496727.43404      2017.610 4        27.126                                                                    28067691.882 6 110143654.59206      1506.384 6        39.294    28067688.721 5 113016948.71905      1545.651 5        33.485
G26        17.000    20810444.403 7 109359670.80507     -2470.131 7        47.551                                    20810444.936 7  85215726.85107     -1924.775 7        42.027    20810443.976 7  85215300.84607     -1924.866 7        42.032
R02        18.000    23499256.137 5 125396530.02915     -2820.270 5        34.719
E30        19.000    24340723.606 6 127911369.85506       325.379 6        37.293                                                                    24340729.797 5  95518271.96205       243.111 5        35.867    24340727.360 5  98010045.20005       249.642 5        35.600
R20        20.000    20749285.037 5 110955769.82705      1482.006 5        30.709                                                                    20749292.269 7  86299009.47007      1152.572 7        44.602
E02        21.000    23797112.060 7 125054926.77407     -2574.171 7        46.879                                                                    23797110.163 7  93385080.68507     -1922.245 7        46.025    23797109.644 7  95821221.10707     -1972.457 7        45.889
S23        22.000    38070404.281 6 200061352.28706      -865.539 6        40.408
R10        23.000    20210399.777 5 107732812.44205       237.816 5        35.048
E36        24.000    23611103.468 7 124077210.14207     -1946.473 7        46.757                                                                    23611102.984 7  92655226.90407     -1453.612 7        43.498    23611103.219 7  95072301.65507     -1491.511 7        43.659
R18        25.000    22419718.491 6 119677602.77016     -4267.048 6        37.803                                                                    22419728.161 4                     -3318.382 4        26.479
G16        26.000    20503729.023 8 107747823.92608      -104.969 8        49.636                                    20503723.991 5  83959331.54805       -81.795 5        34.109
S21        27.000    38344458.298 5 201501731.29005      -864.124 5        35.005
C22        28.000                                                                                                                                    24641971.107 5 128317483.79305      -489.368 5        33.293
R19        29.000    19798298.063 6 105907552.82506     -2580.900 6        36.113                                                                    19798299.498 7  82372530.63307     -2007.396 7        42.772
S36        31.000    38114823.971 6 200294726.41106      -863.014 6        36.333
E34        32.000    24023854.138 7 126246207.19907       770.461 7        43.754                                                                    24023852.891 7  94274769.60507       575.346 7        45.354    24023852.524 6  96734170.80906       590.279 6        41.664
R11        33.000    23625357.525 4                      3192.888 4        27.772                                                                    23625331.631 6  98191806.81616      2483.357 6        36.276
R16        34.000    23631585.290 3                     -5534.182 3        20.024
C44        35.000                                                                                                                                    23991954.839 5 124932290.69705     -3391.790 5        35.919                                                                    23991954.750 5 101517757.08405     -2756.124 5        32.599
C08        36.000                                                                                                                                    37785794.355 4                     -1421.708 4        25.820    37785790.853 6 152147748.01706     -1099.385 6        38.997    37785784.350 4 159884147.86404     -1155.339 4        29.128
R09        37.000    20023737.376 6 106925688.06906     -3414.972 6        39.492                                                                    20023727.688 6  83164331.82506     -2655.991 6        39.940
C11        38.000                                                                                                                                    21794658.631 5 113490570.45605       127.149 5        35.767    21794658.916 8  87758220.49108        98.297 8        49.876    21794658.692 7  92220360.72307       103.353 7        45.979
C12        41.000                                                                                                                                    22568148.476 7 117518255.75607     -2591.049 7        47.487    22568144.632 8  90872663.68108     -2003.539 8        49.895    22568143.935 8  95493289.19408     -2105.400 8        48.371
C13        43.000                                                                                                                                    37608243.020 6 195836001.99906     -1147.630 6        39.736    37608243.320 6 151432814.03706      -887.381 6        39.261    37608241.432 5 159132796.42105      -932.429 5        31.577
C38        44.000                                                                                                                                    39031335.359 5 203246346.92805     -1772.988 5        32.359                                                                    39031300.861 5 165154247.53305     -1440.687 5        30.853
C25        45.000                                                                                                                                    23201478.521 7 120816239.71707     -3222.641 7        42.119                                                                    23201472.205 6  98173265.60806     -2618.713 6        40.052
C21        46.000                                                                                                                                    25189036.513 4                      1825.509 4        27.353                                                                    25189043.589 3                      1483.533 3        23.752
C23        47.000                                                                                                                                    23762572.731 7 123737995.92507      -285.291 7        44.340                                                                    23762565.264 6 100547255.41506      -231.770 6        38.003
C43        48.000                                                                                                                                    23015667.751 7 119848700.15007      1191.682 7        43.033                                                                    23015665.272 6  97386849.30306       968.503 6        41.211
C34        52.000                                                                                                                                    21289921.916 7 110862288.35907     -1139.415 7        47.228                                                                    21289922.675 6  90084773.34506      -925.687 6        41.075
C37        54.000                                                                                                                                    26871261.373 5 139925549.86405      1882.374 5        31.366                                                                    26871220.775 5 113700928.19805      1529.765 5        32.737
I01        56.000   410097388.495 6 306169426.55806     -1710.878 6        39.399
I06        58.000    38613984.078 7 151529692.06907      -613.249 7        43.391
> 2025 01 02 18 31 25.0000000  0 41
G10         1.000    24137009.360 5 126840874.85805      2750.042 5        32.802
G23         2.000    21667538.132 5 113863718.43305      1505.982 5        34.767                                    21667542.629 1  88724943.26501      1173.518 1         8.667    21667538.113 5  88724968.24605      1173.605 5        34.210
G05         4.000                                                                                                                                                                    24529438.860 3                     -3115.454 3        23.600
G31         7.000    24905295.628 4                     -4220.734 4        24.932
G07         8.000    25765802.891 5                      1093.106 5        32.389
G29         9.000    23546075.325 5 123735448.42905     -3852.504 5        34.467                                    23546071.549 1  96417224.94501     -3001.943 1         8.190    23546085.898 4                     -3002.219 4        28.768
G18        12.000    20761698.084 7 109103688.31907     -2220.628 7        45.719                                    20761692.176 4  85015739.69104     -1730.347 4        27.509    20761694.777 6  85015939.63606     -1730.225 6        38.667
G27        13.000    22025058.337 5 115742464.81005      1916.590 5        33.317                                    22025041.696 3  90188834.00603      1493.468 3        19.045    22025050.946 5  90188922.01905      1493.540 5        35.281
E27        14.000    28065769.625 4 147486642.59604      2016.547 4        26.515                                                                    28065772.588 6 110136123.73506      1506.019 6        38.979    28065769.596 5 113009221.39905      1545.159 5        33.473
G26        17.000    20812796.260 7 109372028.97607     -2473.137 7        46.973                                    20812796.710 6  85225356.58406     -1927.112 6        41.871    20812795.535 6  85224930.57206     -1927.044 6        41.900
R02        18.000    23501896.917 6 125410641.61906     -2824.073 6        36.420
E30        19.000    24340413.898 5 127909746.46805       324.045 5        34.819                                                                    24340422.035 6  95517059.70306       241.764 6        36.250    24340417.470 5  98008801.35205       247.937 5        34.857
R20        20.000    20747899.191 4 110948365.22304      1479.876 4        29.867                                                                    20747905.694 7  86293250.34707      1151.089 7        42.912
E02        21.000    23799562.186 7 125067802.21207     -2575.933 7        46.583                                                                    23799560.296 7  93394695.45907     -1923.638 7        45.889    23799559.748 7  95831086.70307     -1973.841 7        45.907
S23        22.000    38071226.460 6 200065679.83306      -865.412 6        40.284
R10        23.000    20210180.359 6 107731635.00406       233.074 6        38.862
E36        24.000    23612956.589 7 124086946.59007     -1948.135 7        47.729                                                                    23612955.785 7  92662497.63307     -1454.861 7        44.059    23612955.674 7  95079762.05607     -1492.688 7        42.893
R18        25.000                                                                                                                                    22423723.095 4                     -3318.973 4        29.403
G16        26.000    20503830.635 8 107748357.02608      -108.239 8        50.084                                    20503825.698 5  83959746.95605       -84.345 5        35.367
S21        27.000    38345288.039 5 201506051.45305      -864.153 5        35.048
C22        28.000                                                                                                                                    24642444.945 5 128319938.40905      -492.368 5        32.485                                                                    24642475.592 4                      -400.571 4        28.389
R19        29.000    19800712.194 6 105920462.42506     -2582.980 6        36.518                                                                    19800712.505 6  82382571.43206     -2009.096 6        41.936
S36        31.000    38115642.904 6 200299042.23506      -863.307 6        36.174
E34        32.000    24023121.852 7 126242359.33007       768.708 7        44.333                                                                    24023120.636 7  94271896.20107       574.066 7        45.055    24023120.331 7  96731222.44107       589.088 7        42.140
R11        33.000    23622372.686 4                      3191.131 4        29.630                                                                    23622345.395 6  98179392.48606      2482.139 6        36.250
R16        34.000    23636760.473 3                     -5527.453 3        20.452
C44        35.000                                                                                                                                    23995211.410 6 124949251.15506     -3392.237 6        36.741                                                                    23995210.604 5 101531538.87605     -2756.789 5        32.599
C08        36.000                                                                                                                                    37787159.806 4                     -1422.543 4        27.844    37787156.271 6 152153246.40206     -1100.094 6        39.297    37787149.862 4 159889925.81604     -1156.028 4        29.422
R09        37.000    20026934.343 6 106942772.40006     -3418.716 6        41.068                                                                    20026927.387 6  83177619.63106     -2659.073 6        41.004
C11        38.000                                                                                                                                    21794539.181 6 113489938.42806       125.741 6        36.250    21794537.616 8  87757731.78008        97.178 8        49.779    21794537.458 7  92219847.16707       102.080 7        46.304
C12        41.000                                                                                                                                    22570637.897 7 117531213.49507     -2592.093 7        47.785    22570632.219 8  90882683.41508     -2004.357 8        49.780    22570632.453 8  95503818.41408     -2106.368 8        48.772
C13        43.000                                                                                                                                    37609344.665 6 195841742.06906     -1148.507 6        39.219    37609345.954 6 151437252.61306      -888.125 6        39.339    37609343.337 5 159137460.65605      -933.206 5        30.762
C38        44.000                                                                                                                                    39033038.885 5 203255213.43705     -1773.472 5        32.281                                                                    39033003.547 5 165161452.31205     -1440.948 5        30.604
C25        45.000                                                                                                                                    23204574.332 7 120832358.29607     -3224.692 7        43.321                                                                    23204567.609 6  98186363.27806     -2620.351 6        39.538
C21        46.000                                                                                                                                    25187283.914 3                      1824.265 3        23.352                                                                    25187287.641 4                      1482.054 4        24.962
C23        47.000                                                                                                                                    23762848.469 7 123739429.66307      -288.138 7        44.593                                                                    23762840.578 6 100548420.44906      -234.277 6        37.558
C43        48.000                                                                                                                                    23014523.622 7 119842744.30607      1190.595 7        43.735                                                                    23014521.643 6  97382009.70906       967.412 6        41.974
C34        52.000                                                                                                                                    21291017.313 7 110867988.98407     -1140.947 7        47.601                                                                    21291016.894 6  90089405.55806      -927.121 6        40.970
C37        54.000                                                                                                                                    26869449.728 5 139916139.00905      1881.197 5        30.340                                                                    26869413.485 5 113693281.14605      1528.937 5        33.353
I01        56.000   410099568.766 6 306177981.60606     -1711.036 6        39.078
I06        58.000    38614765.447 7 151532758.09607      -613.141 7        43.395
> 2025 01 02 18 31 30.0000000  0 41
G10         1.000    24134394.091 5 126827125.49705      2749.296 5        34.338
G23         2.000    21666113.071 5 113856194.14005      1503.315 5        35.724                                    21666111.021 1  88719080.26201      1171.399 1         7.375    21666105.373 5  88719105.13005      1171.578 5        34.471
G05         4.000                                                                                                                                                                    24533244.765 3                     -3117.667 3        22.324
G31         7.000    24909300.507 3                     -4219.506 3        23.219                                                                                                    24909270.989 3                     -3289.343 3        20.000
G07         8.000    25764764.522 5                      1091.277 5        32.455
G29         9.000    23549748.566 6 123754713.46306     -3853.625 6        36.095                                    23549736.880 1  96432236.68701     -3002.845 1         8.667    23549751.515 4                     -3002.651 4        28.038
G18        12.000    20763811.459 7 109114797.16307     -2223.041 7        46.056                                    20763805.500 4  85024395.92204     -1732.245 4        27.677    20763808.836 6  85024595.87406     -1732.289 6        38.198
G27        13.000    22023235.452 5 115732884.52305      1915.378 5        35.429                                    22023219.859 3  90181368.86103      1492.491 3        20.095    22023225.336 5  90181456.93005      1492.538 5        33.018
E27        14.000    28063850.720 4 147476560.10504      2015.216 4        25.278                                                                    28063853.443 6 110128594.52306      1505.602 6        38.631    28063850.483 5 113001495.79305      1544.713 5        34.038
R03        15.000    22244498.189 4                       474.412 4        26.539                                                                    22244462.522 4                       369.354 4        27.186
G26        17.000    20815150.769 7 109384401.61707     -2476.133 7        46.866                                    20815151.162 6  85234997.60206     -1929.451 6        41.564    20815150.044 6  85234571.59506     -1929.522 6        41.480
R02        18.000    23504541.472 5 125424771.99905     -2828.271 5        33.742                                                                    23504546.222 3                     -2201.074 3        21.048
E30        19.000    24340106.388 5 127908132.73505       321.755 5        32.341                                                                    24340116.121 6  95515854.65006       240.123 6        36.975    24340109.835 5  98007564.85805       246.533 5        34.167
R20        20.000    20746518.728 5 110940970.89005      1477.776 5        30.823                                                                    20746521.403 6  86287499.15806      1149.378 6        41.337
E02        21.000    23802013.918 7 125080687.08707     -2578.088 7        46.188                                                                    23802012.347 7  93404317.27607     -1925.212 7        45.875    23802011.562 7  95840959.52407     -1975.502 7        46.139
S23        22.000    38072049.409 6 200070007.51306      -865.846 6        40.174
R10        23.000    20209965.624 6 107730479.70306       228.668 6        40.644
E36        24.000    23614810.997 8 124096690.89308     -1949.899 8        48.254                                                                    23614810.196 7  92669774.22007     -1455.917 7        44.382    23614809.645 7  95087228.48307     -1494.082 7        42.301
R18        25.000    22427689.561 6 119720275.30416     -4267.769 6        37.270                                                                    22427715.225 5                     -3319.227 5        31.675
G16        26.000    20503934.970 8 107748906.45608      -111.747 8        50.327                                    20503930.558 6  83960175.08406       -87.074 6        36.314
S21        27.000    38346107.840 5 201510371.73105      -864.157 5        34.762
C22        28.000                                                                                                                                    24642920.756 5 128322407.43905      -495.490 5        32.754                                                                    24642944.576 4                      -402.273 4        28.142
R19        29.000    19803127.911 6 105933382.24206     -2584.854 6        37.214                                                                    19803127.074 6  82392620.16006     -2010.658 6        40.911
S36        31.000    38116463.514 5 200303358.20805      -863.327 5        35.962
E34        32.000    24022390.950 7 126238519.50707       766.951 7        44.608                                                                    24022389.918 7  94269028.81207       572.762 7        44.676    24022389.583 7  96728280.25007       587.755 7        43.056
R11        33.000                                                                                                                                    23619361.338 5                      2481.203 5        34.790
C44        35.000                                                                                                                                    23998468.256 6 124966214.40106     -3393.100 6        37.123                                                                    23998466.789 5 101545322.96905     -2757.166 5        32.593
C08        36.000                                                                                                                                    37788529.611 4                     -1423.426 4        29.507    37788522.721 6 152158748.14206     -1100.762 6        39.462    37788517.248 5 159895707.29905     -1156.675 5        30.687
R09        37.000    20030136.627 6 106959875.64806     -3422.756 6        40.861                                                                    20030131.362 7  83190922.14507     -2662.188 7        42.921
C11        38.000                                                                                                                                    21794420.982 6 113489313.83706       123.765 6        36.159    21794417.710 8  87757248.80708        95.886 8        49.526    21794417.588 7  92219339.63407       100.680 7        46.586
C12        41.000                                                                                                                                    22573127.510 7 117544176.65307     -2593.383 7        47.710    22573121.038 8  90892707.34708     -2005.358 8        49.345    22573121.965 8  95514352.05308     -2107.367 8        49.160
C13        43.000                                                                                                                                    37610446.539 6 195847486.40606     -1149.277 6        38.420    37610449.162 6 151441694.50506      -888.797 6        39.093    37610446.005 5 159142128.43105      -933.967 5        31.185
C38        44.000                                                                                                                                    39034741.459 5 203264083.11905     -1774.673 5        32.515                                                                    39034706.637 5 165168659.60105     -1441.906 5        30.408
C25        45.000                                                                                                                                    23207670.300 7 120848486.59707     -3226.785 7        43.170                                                                    23207664.736 6  98199468.86206     -2622.106 6        39.817
C21        46.000                                                                                                                                                                                                                                                                    25185534.049 4                      1480.940 4        26.347
C23        47.000                                                                                                                                    23763126.807 7 123740877.57907      -291.184 7        45.177                                                                    23763117.766 6 100549597.02306      -236.590 6        36.968
C43        48.000                                                                                                                                    23013381.145 7 119836793.98207      1189.279 7        44.727                                                                    23013379.086 7  97377174.59807       966.351 7        42.743
C34        52.000                                                                                                                                    21292114.005 7 110873697.45707     -1142.676 7        47.757                                                                    21292112.819 6  90094044.16406      -928.611 6        40.453
C37        54.000                                                                                                                                    26867643.871 4 139906735.24404      1879.518 4        27.760                                                                    26867607.704 5 113685639.92205      1527.386 5        33.251
I01        56.000   410101748.810 6 306186537.42006     -1711.284 6        39.276
I06        58.000    38615546.557 7 151535824.07607      -613.325 7        43.355
> 2025 01 02 18 31 35.0000000  0 42
G10         1.000    24131777.979 5 126813377.63305      2748.750 5        34.795
G23         2.000                                                                                                                                                                    21664674.486 5  88713251.18705      1169.666 5        34.733
G05         4.000                                                                                                                                                                    24537050.434 3                     -3118.728 3        22.933
E25         6.000    27612882.282 3                     -3956.766 3        20.214
G31         7.000    24913311.924 3                     -4219.851 3        22.324                                                                                                    24913289.515 3                     -3286.685 3        20.833
G07         8.000    25763727.530 5                      1088.927 5        31.660
G29         9.000    23553421.263 6 123773981.68206     -3854.295 6        37.433                                    23553404.004 1  96447250.90301     -3003.367 1         9.143    23553419.833 4                     -3003.067 4        27.533
G18        12.000    20765927.427 7 109125916.56007     -2225.271 7        46.202                                    20765920.976 4  85033060.37004     -1733.964 4        28.246    20765924.772 6  85033260.32406     -1733.834 6        38.520
G27        13.000    22021412.588 6 115723309.33406      1914.302 6        36.654                                    22021398.151 3  90173907.72003      1491.637 3        20.429    22021398.975 4  90173995.81904      1491.109 4        28.948
E27        14.000    28061928.747 3                      2015.731 3        21.357                                                                    28061934.421 6 110121066.31606      1505.377 6        37.543    28061932.229 5 112993771.18805      1544.516 5        34.057
R03        15.000                                                                                                                                    22244020.864 4                       366.114 4        29.175
G26        17.000    20817507.666 7 109396787.88807     -2479.012 7        47.322                                    20817508.105 6  85244649.23206     -1931.694 6        41.359    20817507.166 6  85244223.23106     -1931.695 6        40.765
R02        18.000    23507189.641 4 125438920.32904     -2832.157 4        27.784                                                                    23507201.449 3                     -2201.103 3        23.867
E30        19.000    24339800.787 5 127906527.69705       320.157 5        31.615                                                                    24339811.521 6  95514656.11706       238.932 6        37.183    24339802.635 5  98006335.11605       244.761 5        33.862
R20        20.000    20745139.789 5 110933585.94705      1475.680 5        34.452                                                                    20745140.235 6  86281755.26806      1147.706 6        40.296
E02        21.000    23804467.402 7 125093580.52507     -2579.885 7        45.648                                                                    23804465.850 7  93413945.49107     -1926.504 7        45.719    23804465.037 7  95850838.90907     -1976.751 7        46.250
S23        22.000    38072874.566 6 200074334.76206      -865.827 6        39.910
R10        23.000    20209751.632 6 107729345.81606       224.214 6        41.018
E36        24.000    23616666.499 8 124106442.18408     -1951.244 8        48.399                                                                    23616665.873 7  92677056.04107     -1457.080 7        44.852    23616665.061 6  95094700.25806     -1495.095 6        41.712
R18        25.000    22431683.305 6 119741613.23706     -4268.125 6        37.864
G16        26.000    20504042.329 8 107749471.35008      -114.864 8        50.429                                    20504038.395 6  83960615.25806       -89.503 6        37.278
S21        27.000    38346927.139 5 201514691.38305      -864.201 5        34.886
C22        28.000                                                                                                                                    24643397.251 5 128324889.99205      -498.453 5        33.263                                                                    24643421.421 4                      -404.165 4        24.286
R19        29.000    19805544.252 6 105946311.44306     -2587.258 6        37.879                                                                    19805543.876 6  82402676.18106     -2012.257 6        39.225
S36        31.000    38117283.707 5 200307673.68505      -863.421 5        35.890
E34        32.000    24021661.449 7 126234686.89307       765.392 7        44.599                                                                    24021660.436 7  94266166.80007       571.598 7        44.451    24021660.364 7  96725343.58107       586.431 7        43.560
R11        33.000                                                                                                                                    23616372.407 5  98154581.05215      2480.012 5        33.593
C44        35.000                                                                                                                                    24001725.236 6 124983179.62706     -3393.562 6        37.527                                                                    24001721.741 5 101559108.67105     -2757.556 5        32.377
C08        36.000                                                                                                                                    37789898.572 5                     -1423.784 5        30.913    37789890.042 6 152164252.56706     -1101.379 6        39.637    37789885.372 5 159901491.62705     -1157.486 5        31.457
R09        37.000    20033340.166 6 106976996.94206     -3426.388 6        39.345                                                                    20033337.852 7  83204238.68307     -2664.971 7        44.009
C11        38.000                                                                                                                                    21794300.295 5 113488695.72005       122.774 5        33.263    21794298.917 8  87756770.87408        94.784 8        49.600    21794299.050 7  92218837.38407        99.684 7        46.843
C12        41.000                                                                                                                                    22575617.762 7 117557144.40307     -2594.312 7        47.864    22575611.069 8  90902734.83708     -2006.109 8        49.067    22575612.391 8  95524889.42108     -2108.101 8        49.582
C13        43.000                                                                                                                                    37611550.019 6 195853234.15306     -1150.218 6        37.641    37611553.154 6 151446139.01106      -889.457 6        39.117    37611549.387 5 159146798.94205      -934.728 5        30.415
C38        44.000                                                                                                                                    39036445.615 5 203272955.01805     -1775.150 5        32.048                                                                    39036410.232 5 165175868.73605     -1441.940 5        30.438
C25        45.000                                                                                                                                    23210768.022 7 120864623.73207     -3228.714 7        42.684                                                                    23210764.366 6  98212581.60406     -2623.692 6        40.567
C21        46.000                                                                                                                                    25183814.333 5                      1821.514 5        31.879                                                                    25183782.832 4                      1479.556 4        27.257
C23        47.000                                                                                                                                    23763407.315 7 123742338.83907      -293.937 7        45.211                                                                    23763397.240 6 100550784.43006      -238.790 6        36.318
C43        48.000                                                                                                                                    23012239.162 7 119830848.28707      1188.350 7        45.663                                                                    23012237.510 7  97372343.24407       965.682 7        43.285
C34        52.000                                                                                                                                    21293211.645 7 110879412.92207     -1144.154 7        47.964                                                                    21293210.456 6  90098688.42706      -929.661 6        40.305
C37        54.000                                                                                                                                    26865843.059 4 139897337.71504      1878.473 4        28.076                                                                    26865802.995 5 113678003.75905      1526.599 5        33.305
I01        56.000   410103928.820 6 306195093.39006     -1711.499 6        39.048
I06        58.000    38616327.662 7 151538889.35707      -613.249 7        43.448
> 2025 01 02 18 31 40.0000000  0 42
G10         1.000    24129163.142 5 126799631.89705      2748.948 5        34.733
G23         2.000    21663276.166 5 113841181.60205      1498.867 5        35.938                                    21663254.298 1  88707381.94501      1167.937 1         8.762    21663248.916 5  88707406.93805      1168.081 5        35.714
G05         4.000    24540857.427 3                     -4001.966 3        20.238                                                                                                    24540856.308 3                     -3120.979 3        21.595
E25         6.000    27616652.446 3                     -3960.303 3        18.896
G31         7.000    24917325.398 3                     -4220.519 3        18.627                                                                                                    24917297.654 3                     -3288.859 3        19.672
G07         8.000    25762691.648 5                      1087.082 5        31.298
G29         9.000    23557090.845 6 123793253.69406     -3854.757 6        38.315                                    23557071.579 1  96462267.99001     -3003.698 1         8.095
G18        12.000    20768045.907 7 109137047.07307     -2227.146 7        47.064                                    20768038.866 4  85041733.48104     -1735.438 4        28.607    20768042.754 6  85041933.46206     -1735.510 6        40.181
G27        13.000    22019589.628 6 115713739.91206      1913.366 6        38.459                                    22019576.980 3  90166451.08103      1490.939 3        20.548    22019573.013 4  90166539.08704      1491.729 4        25.023
E27        14.000                                                                                                                                    28060015.486 6 110113539.57706      1505.325 6        36.631    28060014.142 5 112986048.09805      1544.301 5        34.043
R03        15.000                                                                                                                                    22243579.255 4                       363.218 4        27.222
G26        17.000    20819867.519 7 109409188.38107     -2481.420 7        47.689                                    20819867.571 6  85254311.95206     -1933.577 6        40.961    20819866.491 6  85253885.96906     -1933.668 6        40.288
R02        18.000                                                                                                                                    23509860.517 4                     -2204.845 4        28.104
E30        19.000    24339499.793 5 127904932.12905       318.301 5        32.018                                                                    24339508.229 6  95513464.59906       237.670 6        37.474    24339497.115 5  98005112.51405       243.924 5        33.748
R20        20.000    20743761.387 6 110926211.02406      1474.003 6        36.231                                                                    20743760.725 6  86276019.20506      1146.536 6        38.628
E02        21.000    23806922.912 7 125106483.12607     -2581.371 7        45.123                                                                    23806921.016 7  93423580.54507     -1927.588 7        45.723    23806920.204 7  95860725.32807     -1978.057 7        46.398
S23        22.000    38073696.817 6 200078661.95506      -865.475 6        39.979
R10        23.000    20209541.043 6 107728233.89706       220.228 6        41.163
E36        24.000    23618523.286 8 124116201.06908     -1952.423 8        48.471                                                                    23618522.999 7  92684343.53107     -1458.060 7        45.273    23618522.460 6  95102177.85706     -1496.081 6        41.161
R18        25.000    22435685.129 6 119762952.57916     -4267.834 6        38.171
G16        26.000    20504153.009 8 107750052.34008      -117.741 8        50.374                                    20504149.238 6  83961067.97306       -91.744 6        37.951
S21        27.000    38347750.115 5 201519011.24705      -863.767 5        34.833
C22        28.000                                                                                                                                    24643876.042 5 128327386.70305      -500.728 5        33.036
R19        29.000    19807963.644 6 105959250.46206     -2588.881 6        37.493                                                                    19807962.809 6  82412739.82806     -2013.357 6        38.658
S36        31.000    38118106.195 5 200311988.89005      -863.052 5        35.924
E34        32.000    24020933.501 7 126230862.06507       764.237 7        44.167                                                                    24020932.571 7  94263310.61207       570.678 7        44.214    24020932.341 7  96722412.87307       585.548 7        44.072
R11        33.000    23613392.255 5                      3186.972 5        32.922                                                                    23613390.243 5  98142183.86005      2478.808 5        32.539
C44        35.000                                                                                                                                    24004982.040 6 125000147.36106     -3393.556 6        37.800                                                                    24004976.782 5 101572896.41705     -2757.719 5        32.419
C08        36.000                                                                                                                                    37791267.675 5                     -1424.995 5        32.491    37791257.388 6 152169760.20706     -1101.907 6        39.937    37791253.516 5 159907279.30005     -1157.671 5        32.341
R09        37.000    20036548.880 6 106994136.69106     -3429.689 6        38.189                                                                    20036547.004 7  83217569.60407     -2667.560 7        44.012
C11        38.000                                                                                                                                    21794176.900 4 113488084.74904       121.976 4        29.090    21794181.646 8  87756298.44508        93.982 8        49.582    21794181.727 7  92218340.92307        98.760 7        46.942
C12        41.000                                                                                                                                    22578109.109 7 117570117.29407     -2595.042 7        47.756    22578102.874 8  90912766.29508     -2006.656 8        49.204    22578103.784 8  95535430.95308     -2108.656 8        49.966
C13        43.000                                                                                                                                    37612653.897 6 195858985.92206     -1150.587 6        36.756    37612657.739 6 151450586.64106      -889.714 6        39.114    37612654.339 5 159151472.71605      -935.191 5        30.317
C38        44.000                                                                                                                                    39038150.390 5 203281829.68605     -1775.362 5        31.042                                                                    39038114.918 5 165183080.14505     -1442.502 5        30.785
C25        45.000                                                                                                                                    23213868.419 6 120880770.28206     -3230.190 6        41.878                                                                    23213866.162 6  98225701.97706     -2624.866 6        41.626
C21        46.000                                                                                                                                                                                                                                                                    25182034.634 4                      1478.774 4        28.114
C23        47.000                                                                                                                                    23763690.197 7 123743814.03907      -296.350 7        44.143                                                                    23763678.870 5 100551983.18305      -240.977 5        35.281
C43        48.000                                                                                                                                    23011097.825 7 119824907.87507      1187.622 7        46.172                                                                    23011097.028 7  97367516.17207       965.054 7        43.879
C34        52.000                                                                                                                                    21294310.351 7 110885135.97807     -1145.321 7        47.731                                                                    21294309.174 6  90103338.86806      -930.609 6        40.360
C37        54.000                                                                                                                                    26864037.621 4 139887947.12804      1877.107 4        27.784                                                                    26863999.737 5 113670373.23605      1525.659 5        33.748
I01        56.000   410106108.998 6 306203649.88906     -1711.252 6        38.895
I06        58.000    38617109.172 7 151541954.38007      -612.964 7        43.441
> 2025 01 02 18 31 45.0000000  0 43
G10         1.000    24126547.445 5 126785888.80205      2747.927 5        33.976                                    24126564.754 1  98794256.56011      2141.255 1         8.476
G23         2.000    21661848.970 4 113833694.36904      1495.496 4        29.460                                    21661829.689 1  88701547.65301      1165.277 1         6.500    21661825.213 6  88701572.76706      1165.597 6        36.295
G05         4.000    24544667.822 3                     -4002.605 3        22.857                                                                                                    24544664.100 3                     -3119.925 3        20.381
E25         6.000    27620421.957 3                     -3964.477 3        21.214
G31         7.000    24921309.493 3                     -4225.448 3        20.024                                                                                                    24921316.440 3                     -3289.825 3        20.905
G07         8.000    25761659.365 5                      1084.797 5        31.177
G29         9.000    23560756.189 6 123812530.00506     -3855.890 6        38.141                                    23560739.070 1  96477288.48101     -3004.700 1         7.000    23560770.519 4                     -3005.095 4        25.654
G18        12.000    20770166.258 7 109148189.25007     -2229.875 7        46.794                                    20770159.309 4  85050415.69104     -1737.560 4        29.431    20770162.892 6  85050615.66906     -1737.538 6        41.788
G27        13.000    22017770.133 6 115704176.73006      1911.725 6        39.724                                    22017756.457 3  90158999.31703      1489.650 3        21.548    22017753.627 3  90159087.24703      1491.018 3        23.314
E27        14.000                                                                                                                                    28058097.354 5 110106014.70505      1504.505 5        35.967    28058096.642 5 112978326.90505      1543.805 5        34.190
R03        15.000                                                                                                                                    22243139.422 4                       359.542 4        26.850
G26        17.000    20822229.633 7 109421603.62007     -2484.842 7        47.215                                    20822229.638 6  85263986.17006     -1936.244 6        40.815    20822229.139 6  85263560.17606     -1936.081 6        39.544
R02        18.000                                                                                                                                    23512518.106 4                     -2207.876 4        28.209
E30        19.000    24339199.041 5 127903346.51205       315.674 5        32.204                                                                    24339206.011 6  95512280.48206       235.849 6        37.123    24339195.003 5  98003897.53605       241.951 5        34.019
R20        20.000    20742384.337 6 110918846.61306      1471.554 6        37.028                                                                    20742382.724 6  86270291.36506      1144.353 6        37.395
E02        21.000    23809380.187 7 125119395.42807     -2583.639 7        44.954                                                                    23809378.163 7  93433222.85507     -1929.432 7        45.732    23809377.287 7  95870619.15907     -1979.746 7        46.617
S23        22.000    38074522.073 6 200082989.56806      -865.830 6        40.100
R10        23.000    20209337.267 7 107727144.41207       215.516 7        42.245
E36        24.000    23620381.660 8 124125968.08708     -1954.530 8        48.355                                                                    23620381.551 7  92691637.08807     -1459.559 7        45.854    23620381.739 6  95109661.67506     -1497.615 6        40.949
R18        25.000    22439685.854 6 119784293.88506     -4268.588 6        37.747                                                                    22439673.435 5                     -3319.955 5        33.401
G16        26.000    20504266.952 8 107750649.94408      -121.435 8        49.809                                    20504263.197 6  83961533.63406       -94.621 6        38.589
S21        27.000    38348571.221 5 201523331.72205      -864.265 5        34.586
C22        28.000                                                                                                                                    24644356.511 5 128329898.08205      -504.316 5        32.257
R19        29.000    19810384.866 6 105972199.76206     -2591.088 6        36.567                                                                    19810383.542 6  82422811.49706     -2015.248 6        38.147
S36        31.000    38118928.017 5 200316304.44305      -863.244 5        35.900
E34        32.000    24020206.813 7 126227045.58807       762.246 7        43.245                                                                    24020206.149 7  94260460.64807       569.195 7        44.117    24020205.975 7  96719488.55907       584.034 7        44.471
R11        33.000    23610416.721 5 126166887.63315      3185.208 5        34.971                                                                    23610408.538 5  98129792.90605      2477.057 5        31.396
R16        34.000    23657462.887 3                     -5536.513 3        18.119
C44        35.000                                                                                                                                    24008240.145 6 125017118.20806     -3394.752 6        37.826                                                                    24008235.574 5 101586686.59905     -2758.403 5        33.305
C08        36.000                                                                                                                                    37792635.786 5                     -1426.069 5        33.419    37792626.520 6 152175271.32406     -1102.703 6        39.847    37792622.683 5 159913070.65805     -1158.761 5        32.946
R09        37.000    20039761.501 6 107011295.55606     -3434.002 6        37.667                                                                    20039760.023 7  83230915.38807     -2670.946 7        44.907
C11        38.000                                                                                                                                    21794059.782 4 113487481.51904       119.189 4        28.844    21794065.807 8  87755831.93908        92.518 8        49.565    21794065.753 7  92217850.66707        97.388 7        47.270
C12        41.000                                                                                                                                    22580601.459 7 117583095.88907     -2596.530 7        47.475    22580596.129 8  90922802.17208     -2007.784 8        49.510    22580596.275 8  95545977.11208     -2109.793 8        50.248
C13        43.000                                                                                                                                    37613757.991 5 195864742.24605     -1151.868 5        35.919    37613763.471 6 151455037.78306      -890.764 6        38.820    37613759.896 5 159156150.16905      -935.788 5        30.347
C38        44.000                                                                                                                                    39039855.914 5 203290707.73605     -1776.370 5        31.298                                                                    39039820.094 5 165190294.24605     -1443.335 5        31.132
C25        45.000                                                                                                                                    23216970.627 6 120896926.77306     -3232.583 6        40.894                                                                    23216969.710 7  98238830.41907     -2626.515 7        43.007
C21        46.000                                                                                                                                    25180300.666 5                      1818.530 5        31.253                                                                    25180287.982 4                      1477.776 4        27.892
C23        47.000                                                                                                                                    23763975.770 7 123745303.72907      -299.675 7        43.361                                                                    23763964.234 5 100553193.65205      -243.165 5        34.381
C43        48.000                                                                                                                                    23009957.903 7 119818973.25107      1186.104 7        46.330                                                                    23009957.599 7  97362693.77707       963.935 7        44.409
C34        52.000                                                                                                                                    21295410.205 7 110890867.14107     -1147.392 7        47.498                                                                    21295409.771 6  90107995.86306      -932.137 6        40.400
C37        54.000                                                                                                                                    26862231.532 4 139878563.95004      1875.679 4        28.559                                                                    26862197.901 5 113662748.68705      1524.491 5        34.700
I01        56.000   410108288.896 6 306212207.38906     -1711.679 6        38.730
I06        58.000    38617890.137 7 151545019.56107      -613.216 7        43.391
> 2025 01 02 18 31 50.0000000  0 43
G10         1.000    24123930.777 5 126772147.64105      2748.096 5        32.234                                    24123948.036 1  98783549.18301      2141.383 1         8.667
G23         2.000                                                                                                                                                                    21660403.277 6  88695748.09806      1164.060 6        36.488
G05         4.000    24548476.191 4                     -4007.448 4        26.048
E25         6.000    27624187.783 3                     -3958.664 3        20.857
G31         7.000    24925322.666 3                     -4219.708 3        23.410                                                                                                    24925334.765 3                     -3288.148 3        20.381
G07         8.000    25760628.209 5                      1082.717 5        30.574
G29         9.000    23564420.521 6 123831809.86606     -3856.412 6        37.040                                    23564406.297 1  96492311.65701     -3005.012 1         5.857    23564444.042 3                     -3004.580 3        23.962
G18        12.000    20772288.025 7 109159342.31207     -2231.683 7        46.429                                    20772282.033 5  85059106.37005     -1738.970 5        30.121    20772284.809 7  85059306.35407     -1738.886 7        42.415
G27        13.000    22015953.259 6 115694619.05006      1910.928 6        41.821                                    22015937.446 3  90151551.82703      1489.025 3        23.219    22015940.938 4  90151639.90904      1488.368 4        24.526
E27        14.000                                                                                                                                    28056180.165 5 110098491.12305      1504.349 5        34.962    28056179.308 5 112970607.05005      1543.704 5        34.124
R03        15.000                                                                                                                                    22242712.261 4                       356.917 4        29.346
G26        17.000    20824594.469 7 109434032.83307     -2487.234 7        46.509                                    20824594.228 6  85273671.28106     -1938.110 6        40.501    20824594.295 6  85273245.27206     -1937.987 6        39.303
R02        18.000    23515182.545 3                     -2842.288 3        22.514
E30        19.000    24338898.914 5 127901769.96005       314.432 5        32.940                                                                    24338905.134 6  95511103.18206       234.753 6        36.503    24338895.094 5  98002689.54205       240.972 5        34.319
R20        20.000    20741008.557 6 110911491.94206      1470.063 6        36.745                                                                    20741009.032 6  86264571.01806      1143.413 6        36.983
E02        21.000    23811839.005 7 125132316.65807     -2585.124 7        44.697                                                                    23811837.049 7  93442871.81607     -1930.479 7        45.801    23811836.200 7  95880519.83907     -1980.842 7        46.795
S23        22.000    38075344.355 6 200087316.77106      -865.422 6        39.955
R10        23.000    20209137.720 7 107726076.48307       211.380 7        42.938
E36        24.000    23622241.701 7 124135742.42807     -1955.594 7        47.938                                                                    23622241.547 7  92698936.11507     -1460.378 7        46.167    23622242.303 6  95117151.11806     -1498.528 6        40.629
R18        25.000    22443679.845 6 119805636.38606     -4268.572 6        36.193                                                                    22443680.411 5  93182337.57015     -3320.033 5        34.829
G16        26.000    20504383.955 8 107751263.40108      -124.264 8        50.014                                    20504380.050 6  83962011.63906       -96.825 6        39.099
S21        27.000    38349392.904 5 201527652.07105      -864.373 5        34.343
C22        28.000                                                                                                                                    24644842.370 5 128332423.35905      -506.354 5        31.457
R19        29.000    19812807.056 5 105985158.69005     -2592.812 5        35.724                                                                    19812805.136 6  82432890.63206     -2016.625 6        37.471
S36        31.000    38119749.879 6 200320619.30006      -862.976 6        36.178
E34        32.000    24019482.049 6 126223236.69306       761.003 6        41.957                                                                    24019481.062 7  94257616.34007       568.309 7        44.113    24019481.195 7  96716570.03807       583.135 7        44.758
R11        33.000    23607439.632 6 126150963.60306      3184.024 6        36.529                                                                    23607429.025 5  98117407.62005      2476.385 5        30.732
R16        34.000    23662645.640 3                     -5529.915 3        18.955
C44        35.000                                                                                                                                    24011497.460 6 125034091.35106     -3394.843 6        37.316                                                                    24011495.209 5 101600478.68905     -2758.581 5        33.742
C08        36.000                                                                                                                                    37794005.976 5                     -1426.396 5        34.310    37793996.008 6 152180785.43206     -1103.092 6        39.844    37793992.804 5 159918865.15505     -1158.940 5        33.491
R09        37.000    20042979.051 6 107028472.78206     -3437.326 6        39.562                                                                    20042977.757 7  83244275.43107     -2673.438 7        45.381
C11        38.000                                                                                                                                    21793949.658 5 113486885.10405       118.658 5        30.581    21793951.511 8  87755370.75708        91.756 8        49.809    21793951.131 7  92217366.02707        96.473 7        47.060
C12        41.000                                                                                                                                    22583094.419 7 117596079.42207     -2597.215 7        46.959    22583090.112 8  90932841.86208     -2008.309 8        50.137    22583089.679 8  95556527.30408     -2110.356 8        50.387
C13        43.000                                                                                                                                    37614862.240 5 195870502.39305     -1152.596 5        34.995    37614869.867 6 151459491.88806      -891.133 6        38.613    37614865.549 5 159160830.77705      -936.283 5        30.589
C38        44.000                                                                                                                                    39041562.362 5 203299588.39005     -1776.457 5        31.170                                                                    39041525.690 5 165197510.51805     -1443.755 5        31.034
C25        45.000                                                                                                                                    23220074.766 6 120913092.39106     -3233.953 6        40.429                                                                    23220074.575 7  98251966.32307     -2627.746 7        43.791
C21        46.000                                                                                                                                    25178551.005 5                      1817.495 5        32.407                                                                    25178542.873 4                      1476.742 4        28.768
C23        47.000                                                                                                                                    23764264.158 7 123746807.10007      -302.115 7        42.667                                                                    23764252.545 5 100554415.28605      -245.310 5        33.533
C43        48.000                                                                                                                                    23008819.005 7 119813043.64507      1185.466 7        46.148                                                                    23008818.963 7  97357875.50307       963.352 7        44.454
C34        52.000                                                                                                                                    21296511.673 7 110896605.63907     -1148.419 7        47.499                                                                    21296511.926 6  90112658.87106      -933.118 6        40.436
C37        54.000                                                                                                                                    26860426.695 4 139869187.42904      1874.672 4        29.716                                                                    26860397.094 5 113655129.58205      1523.260 5        34.690
I01        56.000   410110470.130 6 306220765.33506     -1711.695 6        38.480
I06        58.000    38618670.871 7 151548084.31307      -612.857 7        43.380
> 2025 01 02 18 31 55.0000000  0 41
G10         1.000    24121315.478 5 126758408.66105      2747.333 5        30.060                                    24121331.824 1  98772843.45601      2140.770 1         8.381
G23         2.000    21658976.992 5 113818756.52505      1491.137 5        33.766                                    21658987.606 1  88689908.02801      1161.879 1         3.600    21658982.926 5  88689933.12505      1161.710 5        35.829
G05         4.000    24552290.396 4                     -4009.481 4        28.739                                                                                                    24552265.281 3                     -3124.878 3        19.821
E25         6.000    27627959.270 3                     -3961.230 3        21.905
G31         7.000    24929342.119 4                     -4220.715 4        25.504
G07         8.000    25759597.357 4                      1080.422 4        27.760
G29         9.000    23568087.536 5 123851093.52705     -3857.129 5        35.024                                    23568074.092 1  96507337.76401     -3005.562 1         7.500    23568107.115 3                     -3005.244 3        23.733
G18        12.000    20774412.630 7 109170506.48107     -2234.044 7        46.000                                    20774407.127 5  85067805.71705     -1740.814 5        30.838    20774409.077 7  85068005.72107     -1740.937 7        42.301
G27        13.000    22014140.861 6 115685067.07006      1909.785 6        41.874                                    22014119.655 3  90144108.79203      1488.142 3        23.867    22014125.517 4  90144196.81204      1487.749 4        28.483
E27        14.000    28054257.558 3                      2015.321 3        21.286                                                                    28054263.057 5 110090969.00205      1504.130 5        33.383    28054262.603 5 112962888.67805      1543.422 5        34.695
G26        17.000    20826962.513 7 109446476.25807     -2490.172 7        46.152                                    20826961.549 6  85283367.47106     -1940.400 6        40.350    20826961.950 6  85282941.46106     -1940.516 6        39.309
R02        18.000    23517844.685 4                     -2847.690 4        24.692                                                                    23517827.366 4                     -2213.868 4        26.132
E30        19.000    24338598.062 5 127900202.83405       312.295 5        33.850                                                                    24338605.761 5  95509932.87805       233.120 5        35.648    24338598.018 5  98001488.73905       239.325 5        34.690
R20        20.000    20739634.976 6 110904147.19506      1468.020 6        36.102                                                                    20739635.224 6  86258858.46406      1141.384 6        36.113
E02        21.000    23814299.528 7 125145247.05507     -2587.184 7        45.124                                                                    23814297.623 7  93452527.62607     -1931.933 7        45.564    23814296.811 7  95890427.53007     -1982.302 7        47.041
S23        22.000    38076168.506 6 200091644.08906      -865.562 6        39.994
R10        23.000    20208941.227 7 107725030.45207       206.834 7        43.073
E36        24.000    23624103.055 7 124145524.35707     -1957.245 7        47.817                                                                    23624102.990 7  92706240.80007     -1461.579 7        46.336    23624104.544 6  95124646.35706     -1499.785 6        40.534
R18        25.000    22447673.885 5 119826980.38905     -4268.956 5        34.033                                                                    22447677.389 6  93198938.53206     -3320.498 6        36.246
G16        26.000    20504504.072 8 107751892.94008      -127.643 8        50.470                                    20504499.867 6  83962502.18306       -99.459 6        39.688
S21        27.000    38350207.777 5 201531972.22305      -864.145 5        34.205
C22        28.000                                                                                                                                    24645336.115 5 128334962.87805      -509.464 5        30.460
R19        29.000    19815230.477 5 105998127.42805     -2595.081 5        35.590                                                                    19815229.876 6  82442977.44806     -2018.288 6        37.418
S36        31.000    38120574.893 6 200324934.46406      -863.214 6        36.087
E34        32.000    24018758.591 6 126219435.58006       759.272 6        40.996                                                                    24018757.507 7  94254777.85307       567.006 7        44.047    24018758.021 7  96713657.50307       581.684 7        45.068
R11        33.000    23604464.029 6 126135047.06806      3182.493 6        37.527                                                                    23604447.951 5  98105028.13505      2475.238 5        30.075
C44        35.000                                                                                                                                    24014755.591 6 125051067.01906     -3395.691 6        36.635                                                                    24014755.580 5 101614272.84505     -2758.957 5        34.938
C08        36.000                                                                                                                                    37795375.773 5                     -1427.644 5        34.609    37795366.200 6 152186302.63706     -1103.798 6        39.730    37795363.275 5 159924662.92605     -1159.862 5        34.648
R09        37.000    20046198.974 6 107045668.61506     -3441.154 6        38.048                                                                    20046197.730 7  83257649.92207     -2676.515 7        45.028
C11        38.000                                                                                                                                    21793836.877 5 113486295.88005       116.969 5        33.401    21793838.417 8  87754915.10808        90.450 8        49.962    21793837.807 7  92216887.20907        95.228 7        47.218
C12        41.000                                                                                                                                    22585587.874 7 117609068.09307     -2598.394 7        46.460    22585584.739 8  90942885.52408     -2009.271 8        50.787    22585583.986 8  95567081.67608     -2111.270 8        50.653
C13        43.000                                                                                                                                    37615970.169 5 195876266.44405     -1153.302 5        34.276    37615977.105 6 151463949.03406      -891.929 6        38.673    37615972.413 5 159165514.54405      -937.092 5        30.023
C38        44.000                                                                                                                                    39043266.330 5 203308471.81205     -1776.827 5        30.015                                                                    39043231.577 5 165204729.03105     -1443.950 5        30.974
C25        45.000                                                                                                                                    23223181.026 6 120929267.43606     -3236.137 6        41.004                                                                    23223180.980 7  98265109.88207     -2629.484 7        44.618
C21        46.000                                                                                                                                    25176804.537 5                      1816.076 5        31.909                                                                    25176798.180 4                      1475.767 4        28.275
C23        47.000                                                                                                                                    23764555.954 7 123748324.41907      -305.013 7        42.239                                                                    23764544.258 5 100555648.25805      -247.738 5        33.210
C43        48.000                                                                                                                                    23007681.591 7 119807119.30807      1184.276 7        46.650                                                                    23007681.393 7  97353061.51207       962.441 7        45.032
C34        52.000                                                                                                                                    21297615.194 7 110902351.70807     -1150.073 7        47.656                                                                    21297615.397 6  90117328.02606      -934.376 6        40.603
C37        54.000                                                                                                                                    26858628.904 4 139859817.93704      1873.149 4        29.962                                                                    26858598.071 5 113647516.11705      1522.148 5        35.919
I01        56.000   410112651.451 6 306229323.79606     -1711.926 6        38.255
I06        58.000    38619452.080 7 151551148.81907      -613.056 7        43.344
> 2025 01 02 18 32  0.0000000  0 41
G10         1.000    24118700.595 4 126744672.54604      2746.835 4        26.707                                    24118716.417 1  98762139.95301      2140.469 1         7.000
G23         2.000    21657567.009 5 113811307.04505      1488.543 5        35.533                                    21657570.070 1  88684103.26301      1159.880 1         8.381    21657565.236 5  88684128.35105      1159.831 5        34.757
G05         4.000    24556102.754 4                     -4011.046 4        29.460
E25         6.000    27631730.864 3                     -3962.129 3        21.381
G07         8.000    25758563.347 4                      1078.152 4        24.226
G29         9.000    23571756.252 5 123870381.63205     -3858.161 5        32.623                                    23571744.127 1  96522367.39301     -3006.309 1         9.238
G18        12.000    20776539.277 7 109181682.44307     -2236.506 7        45.282                                    20776534.461 5  85076514.25205     -1742.733 5        31.396    20776536.291 7  85076714.26707     -1742.805 7        42.508
G27        13.000    22012325.391 6 115675521.57206      1908.155 6        41.561                                    22012303.492 3  90136670.79303      1486.855 3        23.429    22012309.691 5  90136758.77405      1486.802 5        31.042
E27        14.000    28052341.933 4                      2014.707 4        24.602                                                                    28052346.772 5 110083448.90505      1503.590 5        33.126    28052346.762 5 112955172.36605      1543.125 5        35.167
R03        15.000                                                                                                                                    22241876.225 5                       350.373 5        30.392
G26        17.000    20829333.891 7 109458934.57607     -2493.389 7        46.375                                    20829331.925 6  85293075.27006     -1942.903 6        40.269    20829332.891 6  85292649.25906     -1942.969 6        39.396
R02        18.000                                                                                                                                    23520497.336 3                     -2218.922 3        22.133
E30        19.000    24338301.547 5 127898645.72805       310.160 5        34.381                                                                    24338305.861 5  95508770.04905       231.627 5        34.705    24338302.374 5  98000295.66505       237.918 5        34.829
R20        20.000    20738261.987 5 110896813.05705      1465.567 5        35.057                                                                    20738262.368 5  86253154.09805      1139.927 5        33.479
E02        21.000    23816761.950 7 125158187.28107     -2589.258 7        45.165                                                                    23816760.221 7  93462190.77407     -1933.502 7        45.478    23816759.369 7  95900342.77107     -1983.985 7        47.150
S23        22.000    38076990.668 6 200095972.03906      -865.736 6        39.904
R10        23.000    20208749.178 7 107724007.18207       202.212 7        42.802
E36        24.000    23625965.996 7 124155314.54007     -1959.035 7        46.983                                                                    23625966.052 7  92713551.65307     -1462.834 7        46.350    23625967.894 6  95132147.93706     -1501.049 6        40.329
R18        25.000    22451668.812 4 119848326.48704     -4269.675 4        28.796                                                                    22451679.903 6  93215541.01706     -3320.732 6        37.198
G16        26.000    20504627.042 8 107752539.25308      -131.111 8        50.695                                    20504622.845 6  83963005.79406      -102.163 6        39.919
S21        27.000    38351033.122 5 201536293.09405      -864.324 5        34.467
C22        28.000                                                                                                                                    24645830.394 4 128337517.33004      -512.795 4        26.910
R19        29.000    19817656.374 6 106011106.73606     -2597.165 6        36.321                                                                    19817656.758 6  82453072.48206     -2019.997 6        37.384
S36        31.000    38121394.899 6 200329250.04606      -863.462 6        36.302
E34        32.000    24018036.311 6 126215642.95506       757.416 6        39.504                                                                    24018035.480 7  94251945.70307       565.718 7        43.951    24018036.536 7  96710751.45807       580.361 7        45.234
R11        33.000    23601489.830 6 126119138.81506      3180.522 6        37.278                                                                    23601471.949 4  98092655.12304      2473.604 4        29.412
C44        35.000                                                                                                                                    24018014.888 5 125068045.91905     -3396.299 5        35.395                                                                    24018016.296 5 101628069.61505     -2759.641 5        35.429
C08        36.000                                                                                                                                    37796746.923 5 196817579.47215     -1428.629 5        35.543    37796736.752 6 152191823.56906     -1104.668 6        39.550    37796734.873 5 159930464.60505     -1161.049 5        35.348
R09        37.000    20049422.915 5 107062883.58205     -3445.316 5        33.533                                                                    20049420.637 7  83271039.35207     -2679.597 7        43.992
C11        38.000                                                                                                                                    21793727.279 5 113485714.41605       115.367 5        35.690    21793726.737 8  87754465.50608        89.190 8        49.908    21793726.057 7  92216414.74307        93.725 7        47.146
C12        41.000                                                                                                                                    22588082.665 7 117622062.59307     -2599.661 7        46.197    22588080.153 8  90952933.69308     -2010.155 8        51.154    22588079.412 8  95577640.78308     -2112.357 8        50.660
C13        43.000                                                                                                                                    37617077.247 5 195882035.20205     -1154.512 5        33.497    37617084.986 6 151468409.77406      -892.437 6        38.426    37617080.594 4 159170202.18904      -938.328 4        29.299
C38        44.000                                                                                                                                    39044974.774 4 203317358.82004     -1777.743 4        29.071                                                                    39044938.678 5 165211950.42305     -1444.988 5        30.626
C25        45.000                                                                                                                                    23226290.255 7 120945452.51207     -3238.142 7        42.226                                                                    23226289.024 7  98278261.59707     -2631.271 7        44.649
C21        46.000                                                                                                                                    25175058.458 5                      1814.492 5        30.068                                                                    25175054.024 4                      1474.533 4        28.133
C23        47.000                                                                                                                                    23764849.748 6 123749856.37406      -307.957 6        41.650                                                                    23764840.139 5 100556893.09305      -249.988 5        32.760
C43        48.000                                                                                                                                    23006545.689 7 119801200.91807      1182.935 7        47.335                                                                    23006544.757 7  97348252.34707       961.284 7        45.375
C34        52.000                                                                                                                                    21298720.328 7 110908106.04607     -1151.860 7        47.705                                                                    21298720.727 6  90122003.90106      -935.996 6        40.529
C37        54.000                                                                                                                                    26856831.384 5 139850456.08305      1871.448 5        31.147                                                                    26856800.597 6 113639908.90006      1520.954 6        36.318
I01        56.000   410114832.367 6 306237883.38006     -1712.178 6        38.012
I06        58.000    38620232.558 7 151554213.57707      -613.019 7        43.363
> 2025 01 02 18 32  5.0000000  0 41
G10         1.000    24116077.745 3                      2745.364 3        20.143
G23         2.000    21656162.495 6 113803870.67906      1486.219 6        36.386                                    21656155.003 1  88678308.77101      1158.161 1         8.762    21656150.263 5  88678333.84805      1158.093 5        34.238
G05         4.000    24559919.301 4                     -4012.860 4        29.185
E25         6.000    27635502.853 3                     -3961.705 3        20.857
G31         7.000                                                                                                                                                                    24937410.261 3                     -3287.917 3        21.119
G07         8.000    25757535.080 3                      1075.904 3        19.672
G29         9.000    23575427.788 5 123889674.16705     -3858.912 5        31.042                                    23575415.655 1  96537400.49601     -3006.972 1         8.381
G18        12.000    20778668.302 7 109192870.18807     -2238.587 7        44.659                                    20778664.054 5  85085231.96805     -1744.364 5        31.502    20778665.787 7  85085431.97207     -1744.293 7        43.788
G27        13.000    22010505.294 6 115665982.49106      1907.431 6        40.827                                    22010488.608 3  90129237.78503      1486.306 3        23.924    22010494.132 5  90129325.78705      1486.139 5        33.868
E27        14.000    28050428.745 4                      2013.205 4        27.605                                                                    28050430.381 5 110075930.74105      1503.673 5        32.383    28050430.977 5 112947458.14805      1542.752 5        35.219
R03        15.000                                                                                                                                    22241453.254 4                       347.412 4        27.485
G26        17.000    20831707.613 7 109471407.75407     -2495.894 7        47.009                                    20831705.431 6  85302794.63806     -1944.853 6        40.360    20831707.305 6  85302368.62106     -1944.934 6        39.952
E30        19.000    24338008.921 5 127897098.69805       308.700 5        35.505                                                                    24338006.005 5  95507614.76605       230.492 5        34.843    24338008.361 5  97999110.30905       236.684 5        34.671
R20        20.000    20736891.667 5 110889489.53305      1463.759 5        35.900                                                                    20736893.712 5  86247458.01305      1138.311 5        32.916
E02        21.000    23819226.061 7 125171137.33507     -2590.723 7        45.463                                                                    23819224.636 7  93471861.26107     -1934.656 7        45.327    23819223.808 7  95910265.53907     -1985.097 7        47.182
S23        22.000    38077813.764 6 200100300.30306      -865.461 6        39.859
R10        23.000    20208561.833 7 107723006.60107       198.128 7        42.857
E36        24.000    23627830.481 7 124165112.95307     -1960.305 7        46.699                                                                    23627830.797 7  92720868.66307     -1463.850 7        46.616    23627832.523 6  95139655.83106     -1502.195 6        40.124
R18        25.000                                                                                                                                    22455683.090 6  93232145.08816     -3320.666 6        37.690
G16        26.000    20504753.092 8 107753202.35408      -134.038 8        50.964                                    20504748.963 6  83963522.49106      -104.442 6        39.913
S21        27.000    38351853.115 5 201540614.64305      -864.023 5        33.617
C22        28.000                                                                                                                                    24646323.341 4                      -514.173 4        24.030
R19        29.000    19820085.681 6 106024096.61306     -2598.770 6        36.854                                                                    19820084.739 6  82463175.67406     -2021.266 6        37.346
S36        31.000    38122214.517 6 200333565.98106      -863.058 6        36.250
E34        32.000    24017315.417 6 126211858.82906       756.212 6        37.546                                                                    24017315.160 7  94249119.89007       564.707 7        44.122    24017316.682 7  96707851.91007       579.488 7        45.356
R11        33.000    23598519.250 6 126103238.81606      3179.407 6        38.414                                                                    23598494.712 4  98080288.53504      2473.185 4        28.284
C44        35.000                                                                                                                                    24021275.410 5 125085028.02605     -3396.217 5        33.389                                                                    24021277.494 6 101641868.96406     -2760.022 6        36.166
C08        36.000                                                                                                                                    37798118.427 5 196824723.99905     -1429.001 5        35.914    37798108.691 6 152197348.16706     -1104.993 6        39.423    37798107.302 5 159936270.12605     -1161.492 5        35.609
R09        37.000                                                                                                                                    20052648.112 7  83284443.65407     -2682.203 7        43.020
C11        38.000                                                                                                                                    21793619.156 5 113485140.74005       114.119 5        35.676    21793616.662 8  87754021.93408        88.347 8        50.164    21793615.700 7  92215948.59807        92.719 7        46.921
C12        41.000                                                                                                                                    22590579.519 7 117635062.89307     -2600.385 7        45.991    22590576.634 8  90962986.36108     -2010.810 8        51.520    22590575.969 8  95588204.59708     -2113.057 8        50.598
C13        43.000                                                                                                                                    37618185.953 5 195887808.68705     -1154.903 5        32.832    37618194.065 6 151472874.19206      -892.894 6        38.171    37618189.224 4 159174893.58604      -938.809 4        29.422
C38        44.000                                                                                                                                    39046681.309 4 203326249.31704     -1778.031 4        27.677                                                                    39046645.605 5 165219174.62605     -1444.887 5        30.430
C25        45.000                                                                                                                                    23229400.984 7 120961647.61607     -3239.744 7        43.316                                                                    23229398.845 7  98291421.46307     -2632.672 7        44.402
C21        46.000                                                                                                                                    25173313.260 4                      1813.798 4        24.827                                                                    25173310.583 4                      1473.805 4        26.455
C23        47.000                                                                                                                                    23765145.385 6 123751402.91006      -310.547 6        40.665                                                                    23765136.512 5 100558149.85105      -252.484 5        32.563
C43        48.000                                                                                                                                    23005409.875 7 119795288.46407      1182.171 7        46.922                                                                    23005409.436 7  97343447.98707       960.495 7        45.272
C34        52.000                                                                                                                                    21299827.112 7 110913868.63007     -1153.026 7        47.337                                                                    21299827.484 6  90126686.46106      -936.933 6        40.513
C37        54.000                                                                                                                                    26855033.986 5 139841101.81305      1869.961 5        30.672                                                                    26855004.249 6 113632307.78206      1519.710 6        36.737
I01        56.000   410117013.560 6 306246444.05206     -1712.124 6        37.720
I06        58.000    38621013.831 7 151557278.59607      -612.810 7        43.397
> 2025 01 02 18 32 10.0000000  0 40
G10         1.000    24113462.946 3                      2743.044 3        20.357
G23         2.000    21654752.963 6 113796446.65006      1483.306 6        36.170                                    21654742.319 1  88672523.90701      1155.807 1         9.238    21654738.373 5  88672548.92405      1155.653 5        33.084
G05         4.000    24563738.156 5                     -4015.046 5        30.211
E25         6.000    27639273.146 3                     -3963.509 3        21.405
G29         9.000    23579104.585 4 123908970.29504     -3860.005 4        28.464                                    23579087.568 1  96552436.40701     -3007.739 1         8.667
G18        12.000    20780799.400 7 109204068.85507     -2241.146 7        44.927                                    20780795.703 5  85093958.19305     -1746.348 5        31.585    20780797.006 7  85094158.18907     -1746.272 7        44.767
G27        13.000    22008684.000 6 115656449.00206      1905.868 6        39.586                                    22008675.133 4  90121809.14004      1485.084 4        24.947    22008679.647 6  90121897.13106      1484.935 6        36.049
E27        14.000    28048514.246 4                      2013.131 4        29.649                                                                    28048513.905 5 110068414.01305      1502.703 5        31.411    28048515.732 5 112939745.27905      1542.355 5        35.714
R03        15.000                                                                                                                                    22241037.983 4                       344.522 4        26.144
G26        17.000    20834084.053 7 109483894.95207     -2499.206 7        47.352                                    20834081.866 6  85312524.92806     -1947.432 6        40.725    20834084.000 6  85312098.90206     -1947.485 6        41.063
R02        18.000                                                                                                                                    23525813.478 3                     -2223.800 3        22.724
E30        19.000    24337716.795 6 127895560.93206       306.200 6        36.170                                                                    24337713.378 5  95506466.43405       228.716 5        35.590    24337715.392 5  97997932.06005       234.700 5        34.981
R20        20.000    20735524.466 6 110882175.73706      1461.570 6        36.775                                                                    20735526.799 5  86241769.57405      1136.595 5        34.990
E02        21.000    23821691.940 7 125184096.36707     -2593.050 7        45.848                                                                    23821690.749 7  93481538.45907     -1936.397 7        45.058    23821689.810 7  95920195.18307     -1986.825 7        47.021
S23        22.000    38078637.835 6 200104628.38406      -866.038 6        39.712
R10        23.000    20208378.542 7 107722027.93207       193.218 7        42.104
E36        24.000    23629696.666 7 124174918.75207     -1962.217 7        46.711                                                                    23629696.931 7  92728191.17507     -1465.272 7        46.727    23629698.123 6  95147169.34806     -1503.559 6        39.535
R18        25.000                                                                                                                                    22459684.594 6  93248750.16606     -3321.245 6        37.229
G16        26.000    20504882.238 8 107753881.38608      -137.713 8        51.003                                    20504878.086 6  83964051.60006      -107.306 6        39.826
S21        27.000    38352678.174 5 201544935.92805      -864.353 5        33.760
C22        28.000                                                                                                                                    24646814.460 3                      -518.040 3        20.405
R19        29.000    19822516.417 6 106037096.10206     -2601.270 6        37.240                                                                    19822515.472 6  82473286.37506     -2023.196 6        38.423
S36        31.000    38123040.434 6 200337882.63906      -863.550 6        36.155
E34        32.000    24016597.050 5 126208082.30305       754.184 5        35.252                                                                    24016596.437 7  94246299.77107       563.159 7        44.268    24016598.145 7  96704958.20707       577.889 7        45.404
R11        33.000    23595552.796 6 126087346.23606      3177.281 6        39.021                                                                    23595520.963 4  98067927.64004      2471.116 4        28.199
C44        35.000                                                                                                                                    24024536.877 5 125102012.50505     -3397.243 5        31.781                                                                    24024538.954 6 101655670.22106     -2760.449 6        36.733
C08        36.000                                                                                                                                    37799491.155 6 196831872.34306     -1430.469 6        36.480    37799481.249 6 152202875.70806     -1106.166 6        39.174    37799480.340 6 159942078.72206     -1162.234 6        36.567
R09        37.000    20055893.185 5 107097370.18705     -3452.687 5        35.886                                                                    20055879.848 7  83297862.19107     -2685.415 7        43.287
C11        38.000                                                                                                                                    21793507.591 6 113484574.09906       112.449 6        36.344    21793507.903 8  87753583.74708        86.855 8        50.468    21793506.877 7  92215488.12807        91.299 7        46.980
C12        41.000                                                                                                                                    22593077.494 7 117648068.16507     -2601.833 7        45.982    22593074.130 8  90973042.86908     -2011.906 8        51.934    22593073.426 8  95598772.44908     -2114.130 8        50.518
C13        43.000                                                                                                                                    37619296.921 5 195893585.95905     -1156.039 5        32.485    37619303.282 6 151477341.54206      -894.133 6        38.063    37619298.500 4 159179588.10504      -939.504 4        29.678
C38        44.000                                                                                                                                    39048390.181 4 203335142.44704     -1779.424 4        25.534                                                                    39048353.298 5 165226400.96005     -1445.553 5        30.211
C25        45.000                                                                                                                                    23232513.091 7 120977851.92907     -3242.065 7        44.105                                                                    23232510.224 7  98304588.80307     -2634.348 7        43.954
C21        46.000                                                                                                                                    25171581.056 3                      1811.420 3        22.457                                                                    25171568.215 4                      1472.445 4        24.812
C23        47.000                                                                                                                                    23765444.766 6 123752963.21606      -313.764 6        40.315                                                                    23765434.051 5 100559417.82105      -254.725 5        32.952
C43        48.000                                                                                                                                    23004274.710 7 119789381.12407      1180.627 7        46.398                                                                    23004274.898 7  97338647.78807       959.501 7        45.701
C34        52.000                                                                                                                                    21300935.671 7 110919638.61107     -1155.016 7        47.455                                                                    21300935.611 6  90131375.03706      -938.452 6        40.639
C37        54.000                                                                                                                                    26853234.262 5 139831754.31805      1868.773 5        30.785                                                                    26853209.484 6 113624712.21806      1518.441 6        37.444
I01        56.000   410119195.349 6 306255005.25906     -1712.609 6        37.501
I06        58.000    38621795.045 7 151560343.22707      -613.063 7        43.391
> 2025 01 02 18 32 15.0000000  0 39
G23         2.000    21653336.153 5 113789035.51705      1480.906 5        35.267                                    21653332.009 1  88666748.98201      1153.958 1        10.593    21653325.804 5  88666773.95605      1154.258 5        32.742
G05         4.000    24567561.300 5                     -4016.661 5        30.226
E25         6.000    27643048.331 3                     -3961.643 3        21.595
G07         8.000    25755548.047 3                      1072.573 3        21.286
G29         9.000    23582777.510 4 123928270.49404     -3860.230 4        25.579                                    23582760.447 1  96567475.52401     -3007.948 1         8.000
G18        12.000    20782932.659 7 109215278.93207     -2243.117 7        44.638                                    20782929.414 5  85102693.31805     -1747.884 5        31.328    20782930.289 7  85102893.31607     -1747.906 7        45.216
G27        13.000    22006867.486 6 115646921.60906      1904.798 6        39.015                                    22006862.780 4  90114385.25004      1484.254 4        25.504    22006865.834 6  90114473.24506      1484.363 6        37.104
E27        14.000    28046600.097 5                      2012.765 5        30.936                                                                    28046598.735 5 110060898.95605      1503.179 5        30.445    28046600.675 5 112932034.22005      1542.103 5        35.762
R03        15.000    22240618.864 6 119056121.53116       438.427 6        37.357                                                                    22240632.224 4                       340.786 4        29.744
G26        17.000    20836462.605 7 109496396.67407     -2501.694 7        46.938                                    20836461.243 6  85322266.53206     -1949.368 6        40.837    20836463.507 6  85321840.49506     -1949.398 6        41.685
R02        18.000    23528488.971 3                     -2861.843 3        22.381
E30        19.000    24337425.407 6 127894032.93706       304.622 6        38.141                                                                    24337424.190 6  95505325.38106       227.535 6        36.333    24337423.906 5  97996761.25905       233.512 5        34.914
R20        20.000    20734158.410 6 110874872.33806      1459.673 6        37.040                                                                    20734161.041 6  86236089.14906      1135.288 6        36.635
E02        21.000    23824159.962 7 125197064.87207     -2594.564 7        46.348                                                                    23824158.663 7  93491222.74307     -1937.541 7        45.044    23824157.543 7  95930132.10207     -1988.054 7        46.932
S23        22.000    38079462.809 6 200108956.91006      -865.662 6        40.031
R10        23.000    20208198.360 7 107721071.48907       189.082 7        42.519
E36        24.000    23631564.251 7 124184732.44707     -1963.508 7        47.053                                                                    23631564.630 7  92735519.58707     -1466.263 7        46.928    23631565.018 6  95154688.92906     -1504.506 6        38.835
R18        25.000    22463700.147 4                     -4270.436 4        29.081                                                                    22463682.260 6  93265356.61306     -3321.490 6        36.975
G16        26.000    20505014.501 8 107754576.89208      -140.637 8        50.487                                    20505010.352 6  83964593.54606      -109.588 6        39.225
S21        27.000    38353496.311 5 201549257.53905      -864.273 5        33.539
R19        29.000    19824949.116 6 106050105.76706     -2602.904 6        36.783                                                                    19824948.175 6  82483405.01806     -2024.487 6        39.306
S36        31.000    38123859.613 6 200342199.78906      -863.529 6        36.412
E34        32.000    24015879.979 5 126204313.96505       753.046 5        33.323                                                                    24015879.431 7  94243485.74207       562.161 7        44.662    24015881.167 7  96702070.75907       576.947 7        45.392
R11        33.000    23592583.266 6 126071461.54806      3176.177 6        38.808
C44        35.000                                                                                                                                    24027804.256 5 125118999.90805     -3398.067 5        32.150                                                                    24027801.008 6 101669473.85606     -2760.951 6        36.783
C08        36.000                                                                                                                                    37800864.973 6 196839025.13906     -1430.881 6        36.677    37800855.061 6 152208406.70006     -1106.443 6        38.982    37800854.375 6 159947890.93706     -1162.638 6        36.919
R09        37.000    20059129.434 4 107114641.52204     -3456.227 4        29.384                                                                    20059114.210 7  83311295.42707     -2688.143 7        42.639
C11        38.000                                                                                                                                    21793399.456 6 113484014.92406       111.017 6        37.115    21793400.526 8  87753151.32808        85.929 8        50.717    21793399.404 7  92215033.71407        90.293 7        46.712
C12        41.000                                                                                                                                    22595576.273 7 117661078.90407     -2602.622 7        46.074    22595573.012 8  90983103.60708     -2012.575 8        52.512    22595572.000 8  95609344.74508     -2114.878 8        50.285
C13        43.000                                                                                                                                    37620409.119 5 195899367.56705     -1156.732 5        32.515    37620413.569 6 151481812.25906      -894.208 6        38.159    37620408.600 4 159184286.14404      -939.661 4        29.052
C38        44.000                                                                                                                                    39050098.015 4 203344038.76804     -1778.971 4        24.722                                                                    39050061.456 4 165233629.87704     -1446.160 4        29.725
C25        45.000                                                                                                                                    23235626.555 7 120994065.95107     -3243.661 7        44.436                                                                    23235623.683 7  98317764.02907     -2635.735 7        43.297
C21        46.000                                                                                                                                                                                                                                                                    25169826.831 4                      1472.075 4        24.256
C23        47.000                                                                                                                                    23765746.351 6 123754537.85006      -316.265 6        38.874                                                                    23765735.150 5 100560697.34405      -257.086 5        33.892
C43        48.000                                                                                                                                    23003140.758 7 119783479.39207      1179.854 7        45.506                                                                    23003141.435 7  97333852.15707       958.711 7        45.729
C34        52.000                                                                                                                                    21302045.735 8 110925416.50308     -1156.311 8        48.199                                                                    21302045.295 6  90136070.06006      -939.571 6        40.496
C37        54.000                                                                                                                                    26851430.482 5 139822414.07605      1867.365 5        30.453                                                                    26851416.602 6 113617122.53506      1517.521 6        37.981
I01        56.000   410121377.133 6 306263567.92406     -1712.566 6        37.047
I06        58.000    38622575.669 7 151563407.88207      -612.940 7        43.401
> 2025 01 02 18 32 20.0000000  0 40
G23         2.000    21651920.928 5 113781636.73405      1478.691 5        35.738                                    21651924.155 1  88660983.59501      1152.295 1        10.074    21651919.868 5  88661008.63005      1152.104 5        33.216
G05         4.000    24571383.817 5                     -4018.444 5        30.332                                                                                                    24571367.521 3                     -3128.250 3        19.522
E25         6.000    27646823.007 3                     -3964.539 3        21.524
G31         7.000                                                                                                                                                                    24949410.084 3                     -3287.197 3        22.133
G07         8.000    25754525.732 3                      1069.909 3        23.162
G29         9.000                                                                                                                                                                    23586437.923 4                     -3008.393 4        29.175
G18        12.000    20785067.315 7 109226499.90407     -2245.040 7        44.179                                    20785065.204 5  85111436.92705     -1749.384 5        31.343    20785065.354 7  85111636.92807     -1749.426 7        45.482
G27        13.000    22005055.117 6 115637399.84406      1904.010 6        39.489                                    22005051.290 4  90106965.72704      1483.638 4        26.539    22005053.821 6  90107053.72306      1483.642 6        36.885
E27        14.000    28044686.198 5                      2012.211 5        31.691                                                                    28044683.535 5 110053385.33305      1502.700 5        30.513    28044686.354 6 112924324.57706      1541.866 6        36.435
R03        15.000    22240210.549 6 119053939.29006       434.642 6        36.147                                                                    22240219.627 5                       337.987 5        31.577
G26        17.000    20838843.616 7 109508912.39507     -2504.342 7        46.658                                    20838843.433 6  85332019.03506     -1951.432 6        41.013    20838844.650 6  85331593.00106     -1951.546 6        41.859
R02        18.000                                                                                                                                    23531203.836 4                     -2228.524 4        24.481
E30        19.000    24337135.669 6 127892514.15406       303.105 6        38.742                                                                    24337136.050 6  95504191.22706       226.262 6        37.962    24337134.748 5  97995597.52305       232.116 5        35.443
R20        20.000    20732795.012 6 110867578.71906      1457.944 6        37.267                                                                    20732797.517 6  86230416.33206      1134.004 6        37.928
E02        21.000    23826629.652 7 125210042.35507     -2596.182 7        46.277                                                                    23826628.158 7  93500913.71507     -1938.730 7        45.099    23826626.951 7  95940075.88807     -1989.289 7        46.618
S23        22.000    38080287.939 6 200113285.18306      -865.381 6        40.019
R10        23.000    20208023.647 7 107720136.72507       185.004 7        42.328
E36        24.000    23633433.129 7 124194553.51407     -1964.723 7        46.967                                                                    23633433.687 7  92742853.49707     -1467.182 7        47.223    23633433.342 6  95162214.15106     -1505.617 6        38.162
R18        25.000                                                                                                                                    22467677.196 5  93281963.92805     -3321.276 5        35.781
G16        26.000    20505149.495 8 107755288.35508      -143.705 8        50.069                                    20505145.735 6  83965147.92406      -111.979 6        38.820
S21        27.000    38354316.308 5 201553578.99805      -864.232 5        33.485
R19        29.000    19827381.981 5 106063124.96305     -2604.541 5        35.600                                                                    19827382.354 6  82493531.09106     -2025.914 6        39.646
S36        31.000    38124680.795 6 200346517.36406      -863.252 6        36.185
E34        32.000    24015163.920 5 126200553.30005       751.681 5        32.952                                                                    24015164.095 7  94240677.40207       561.230 7        45.205    24015165.541 7  96699189.16007       575.904 7        45.360
R11        33.000    23589609.835 6 126055584.32106      3174.998 6        38.069                                                                    23589600.803 4  98043224.11204      2468.852 4        29.043
C44        35.000                                                                                                                                    24031071.270 5 125135989.58505     -3397.818 5        33.647                                                                    24031063.749 6 101683279.35506     -2761.330 6        37.104
C08        36.000                                                                                                                                    37802238.564 6 196846181.81806     -1431.584 6        37.047    37802229.125 6 152213940.69206     -1106.937 6        38.393    37802228.871 6 159953706.34006     -1163.454 6        37.705
R09        37.000                                                                                                                                    20062351.317 7  83324742.92517     -2690.853 7        42.154
C11        38.000                                                                                                                                    21793294.158 6 113483462.70806       109.865 6        37.671    21793294.414 8  87752724.31808        85.020 8        50.426    21793293.248 7  92214584.98507        89.402 7        46.667
C12        41.000                                                                                                                                    22598075.746 7 117674094.63007     -2603.402 7        46.127    22598072.821 8  90993168.19808     -2013.149 8        52.924    22598071.503 8  95619921.09008     -2115.495 8        50.194
C13        43.000                                                                                                                                    37621520.395 5 195905153.04205     -1157.479 5        32.695    37621524.856 6 151486285.91206      -894.750 6        37.853    37621519.756 4 159188987.27104      -940.495 4        28.815
C38        44.000                                                                                                                                    39051801.406 3                     -1780.708 3        22.324                                                                    39051770.908 4 165240860.92604     -1446.621 4        29.630
C25        45.000                                                                                                                                    23238741.687 7 121010289.15207     -3245.371 7        44.948                                                                    23238738.877 7  98330946.71907     -2637.168 7        42.927
C21        46.000                                                                                                                                                                                                                                                                    25168088.327 4                      1470.127 4        24.902
C23        47.000                                                                                                                                    23766050.048 5 123756126.29105      -318.826 5        35.548                                                                    23766041.631 5 100561988.06605      -258.974 5        34.924
C43        48.000                                                                                                                                    23002008.159 7 119777582.74807      1179.020 7        44.701                                                                    23002008.940 7  97329060.65307       958.062 7        45.943
C34        52.000                                                                                                                                    21303156.896 8 110931201.77208     -1157.575 8        49.386                                                                    21303156.202 6  90140771.07906      -940.671 6        40.687
C37        54.000                                                                                                                                                                                                                                                                    26849624.754 6 113609538.40006      1516.435 6        38.258
I01        56.000   410123559.568 6 306272130.53606     -1712.036 6        36.756
I06        58.000    38623356.994 7 151566472.14707      -612.731 7        43.257
> 2025 01 02 18 32 25.0000000  0 39
G23         2.000    21650513.382 5 113774250.40705      1475.845 5        34.881                                    21650518.764 1  88655228.01501      1150.054 1         8.952    21650516.626 5  88655253.06305      1149.955 5        34.419
G05         4.000    24575209.107 5                     -4020.062 5        30.898
E25         6.000    27650595.401 3                     -3963.598 3        20.810
G31         7.000    24953537.415 3                     -4221.791 3        22.686                                                                                                    24953436.552 4                     -3287.910 4        24.135
G29         9.000                                                                                                                                                                    23590110.489 4                     -3009.391 4        28.436
G18        12.000    20787205.213 7 109237731.99907     -2247.509 7        43.484                                    20787202.979 5  85120189.20605     -1751.313 5        31.351    20787202.731 7  85120389.21607     -1751.352 7        45.577
G27        13.000    22003244.786 6 115627883.92106      1902.656 6        39.288                                    22003240.891 4  90099550.73904      1482.582 4        27.353    22003240.997 5  90099638.72505      1482.713 5        35.824
E27        14.000    28042772.187 5                      2011.935 5        31.517                                                                    28042769.242 5 110045873.21805      1502.235 5        30.340    28042772.274 6 112916616.50306      1541.425 6        36.423
R03        15.000    22239808.848 5 119051777.21105       430.680 5        31.042                                                                    22239810.116 5                       334.864 5        32.778
G26        17.000    20841228.125 7 109521442.31507     -2507.371 7        46.528                                    20841228.310 6  85341782.60106     -1953.794 6        41.061    20841228.366 6  85341356.57506     -1953.742 6        41.897
E30        19.000    24336849.453 6 127891004.88106       300.815 6        39.207                                                                    24336849.512 6  95503064.13206       224.812 6        39.081    24336847.689 5  97994441.04205       230.474 5        35.990
R20        20.000    20731433.764 6 110860295.19206      1455.656 6        37.701                                                                    20731434.232 6  86224751.37706      1132.159 6        38.363
E02        21.000    23829100.662 7 125223029.02907     -2598.298 7        46.198                                                                    23829099.380 7  93510611.55607     -1940.229 7        44.987    23829098.097 7  95950026.71607     -1990.929 7        46.304
S23        22.000    38081111.912 6 200117613.28706      -865.591 6        40.050
R10        23.000    20207852.740 7 107719224.13707       180.287 7        43.014
E36        24.000    23635303.170 7 124204382.17807     -1966.502 7        46.967                                                                    23635304.093 7  92750193.07707     -1468.444 7        47.409    23635303.223 6  95169745.16906     -1506.730 6        37.202
R18        25.000    22471683.093 4                     -4270.498 4        29.450                                                                    22471672.589 5  93298572.37815     -3321.841 5        34.200
G16        26.000    20505287.625 8 107756015.99608      -147.140 8        49.672                                    20505284.252 6  83965714.91206      -114.655 6        38.501
S21        27.000    38355142.776 5 201557900.41805      -864.060 5        33.659
C22        28.000                                                                                                                                    24648298.654 4                      -526.226 4        27.533
R19        29.000    19829815.747 5 106076153.87005     -2606.594 5        34.995                                                                    19829819.319 6  82503664.71006     -2027.311 6        39.733
S36        31.000    38125500.931 6 200350834.88906      -863.441 6        36.605
E34        32.000    24014450.050 5 126196800.43605       749.728 5        34.810                                                                    24014450.305 7  94237874.92407       559.942 7        45.699    24014451.222 7  96696313.57007       574.562 7        45.226
R11        33.000    23586635.511 6 126039714.80206      3173.277 6        37.259                                                                    23586632.818 4  98030881.22204      2467.882 4        29.905
C44        35.000                                                                                                                                    24034336.437 5 125152981.78205     -3398.773 5        34.614                                                                    24034326.640 6 101697086.96206     -2761.793 6        37.157
C08        36.000                                                                                                                                    37803613.991 6 196853342.54206     -1432.221 6        36.953    37803604.268 6 152219477.81106     -1107.649 6        38.039    37803604.062 6 159959524.99806     -1163.941 6        38.069
R09        37.000    20065641.953 5                     -3463.557 5        34.076                                                                    20065592.767 6  83338204.82506     -2693.888 6        41.986
C11        38.000                                                                                                                                    21793190.183 6 113482917.65806       108.371 6        38.501    21793189.706 8  87752302.83908        83.740 8        50.272    21793188.548 7  92214142.07707        88.027 7        46.650
C12        41.000                                                                                                                                    22600575.940 7 117687115.51007     -2604.681 7        46.011    22600573.582 8  91003236.76608     -2014.061 8        53.327    22600571.949 8  95630501.61008     -2116.463 8        50.026
C13        43.000                                                                                                                                    37622632.533 5 195910942.45405     -1158.013 5        32.820    37622636.729 6 151490762.67606      -895.544 6        38.021    37622631.062 4 159193691.70204      -940.907 4        28.957
C38        44.000                                                                                                                                                                                                                                                                    39053480.756 4 165248094.26904     -1446.677 4        29.659
C25        45.000                                                                                                                                    23241858.360 7 121026521.71107     -3247.433 7        45.166                                                                    23241855.994 7  98344137.01407     -2638.818 7        42.502
C21        46.000                                                                                                                                                                                                                                                                    25166350.784 4                      1469.468 4        25.429
C23        47.000                                                                                                                                    23766353.765 5 123757728.75805      -322.011 5        30.302                                                                    23766350.930 6 100563290.18006      -261.620 6        36.408
C43        48.000                                                                                                                                    23000876.535 7 119771691.42007      1177.752 7        44.569                                                                    23000877.493 7  97324273.46607       957.025 7        45.804
C34        52.000                                                                                                                                    21304269.447 8 110936994.65708     -1159.329 8        50.307                                                                    21304268.447 6  90145478.28106      -942.070 6        40.610
C37        54.000                                                                                                                                    26847823.228 5 139803754.31505      1864.603 5        32.066                                                                    26847833.641 6 113601959.99906      1515.165 6        38.423
I01        56.000   410125740.405 6 306280690.44006     -1711.783 6        36.609
I06        58.000    38624137.702 7 151569536.20007      -612.791 7        43.365
> 2025 01 02 18 32 30.0000000  0 40
G10         1.000    24103062.028 4                      2744.119 4        26.683
G23         2.000    21649107.292 5 113766876.21505      1473.652 5        30.996                                    21649115.761 1  88649482.04201      1148.349 1         5.714    21649119.083 5  88649506.92505      1148.369 5        35.486
G05         4.000    24579040.706 5                     -4021.817 5        30.943
E25         6.000    27654367.059 3                     -3963.994 3        21.048
G31         7.000                                                                                                                                                                    24957454.144 4                     -3288.163 4        24.692
G29         9.000                                                                                                                                                                    23593785.425 4                     -3009.598 4        28.408
G18        12.000    20789344.508 7 109248974.75707     -2249.573 7        42.976                                    20789342.637 5  85128949.80205     -1752.918 5        31.464    20789341.642 7  85129149.80607     -1752.993 7        45.500
G27        13.000    22001433.024 6 115618373.37406      1901.615 6        38.426                                    22001431.194 4  90092139.95004      1481.766 4        27.940    22001431.057 5  90092227.93405      1481.759 5        34.586
E27        14.000    28040858.301 5                      2011.460 5        31.404                                                                    28040855.638 4 110038362.30204      1502.687 4        29.886    28040858.357 6 112908909.67206      1541.302 6        36.393
R03        15.000                                                                                                                                    22239410.111 5                       331.779 5        33.174
G26        17.000    20843615.403 7 109533985.99807     -2510.099 7        45.658                                    20843615.625 6  85351556.89106     -1955.920 6        40.884    20843614.855 7  85351130.87507     -1955.924 7        42.072
E30        19.000    24336565.357 6 127889504.59606       299.302 6        39.315                                                                    24336564.356 6  95501943.79206       223.397 6        40.019    24336562.450 6  97993291.47206       229.270 6        36.843
R20        20.000    20730073.674 6 110853021.23006      1453.814 6        38.012                                                                    20730073.842 6  86219093.84506      1130.865 6        38.207
E02        21.000    23831573.594 7 125236024.43407     -2599.928 7        45.863                                                                    23831572.347 7  93520315.92107     -1941.452 7        44.889    23831571.081 7  95959984.23107     -1992.166 7        45.871
S23        22.000    38081934.570 6 200121940.94806      -865.397 6        40.045
R10        23.000    20207685.312 7 107718333.16207       176.066 7        42.379
E36        24.000    23637174.525 7 124214217.97307     -1967.833 7        47.229                                                                    23637175.788 7  92757537.99107     -1469.460 7        47.415    23637174.529 6  95177281.65806     -1507.873 6        36.306
R18        25.000    22475685.410 4                     -4271.312 4        27.305                                                                    22475666.440 5                     -3321.989 5        33.114
G16        26.000    20505429.527 8 107756759.35808      -150.214 8        49.910                                    20505425.703 6  83966294.15206      -117.046 6        37.966
S21        27.000    38355965.362 5 201562221.03405      -863.890 5        33.790
C22        28.000                                                                                                                                    24648805.526 4                      -529.126 4        28.104
R19        29.000    19832253.460 5 106089192.15205     -2608.639 5        34.524                                                                    19832256.014 6  82513805.59306     -2028.955 6        38.405
S36        31.000    38126325.758 6 200355152.20006      -863.476 6        36.348
E34        32.000    24013737.713 6 126193054.90606       748.432 6        37.180                                                                    24013737.929 7  94235077.98107       558.940 7        46.257    24013738.471 7  96693443.66007       573.386 7        45.354
R11        33.000    23583667.816 5 126023852.55705      3171.803 5        35.238                                                                    23583660.954 4  98018543.98604      2466.550 4        28.076
C44        35.000                                                                                                                                    24037598.275 5 125169976.13405     -3399.086 5        35.248                                                                    24037590.166 6 101710896.26506     -2761.996 6        36.975
C08        36.000                                                                                                                                    37804990.378 6 196860506.97506     -1433.308 6        37.070    37804980.257 6 152225017.80506     -1108.270 6        37.800    37804980.080 6 159965346.68306     -1164.821 6        38.874
R09        37.000    20068881.617 5 107166730.23715     -3467.064 5        33.353                                                                    20068837.352 7  83351680.75207     -2696.559 7        42.681
C11        38.000                                                                                                                                    21793087.002 6 113482379.32906       107.038 6        38.952    21793086.372 8  87751886.56408        82.773 8        50.103    21793085.084 7  92213704.61607        86.890 7        46.579
C12        41.000                                                                                                                                    22603077.383 7 117700141.14207     -2605.577 7        45.484    22603075.147 8  91013309.01708     -2014.748 8        53.565    22603073.333 8  95641085.99308     -2117.357 8        49.746
C13        43.000                                                                                                                                    37623746.443 5 195916735.51005     -1158.976 5        33.275    37623749.372 6 151495242.25606      -896.331 6        37.955    37623743.715 4 159198399.01104      -941.874 4        28.190
C38        44.000                                                                                                                                                                                                                                                                    39055190.575 4 165255329.60804     -1447.573 4        29.185
C25        45.000                                                                                                                                    23244976.496 7 121042763.21307     -3249.125 7        44.850                                                                    23244975.033 7  98357334.53307     -2640.294 7        42.383
C21        46.000                                                                                                                                    25164676.491 4                      1806.883 4        26.826                                                                    25164614.328 4                      1468.885 4        25.669
C23        47.000                                                                                                                                    23766664.444 4 123759344.78804      -324.730 4        29.839                                                                    23766661.420 6 100564603.27506      -263.818 6        37.025
C43        48.000                                                                                                                                    22999746.043 7 119765804.96207      1176.880 7        44.497                                                                    22999747.124 7  97319490.23307       956.179 7        46.062
C34        52.000                                                                                                                                    21305383.333 8 110942794.73008     -1160.725 8        50.521                                                                    21305382.216 6  90150191.30406      -943.305 6        40.660
C37        54.000                                                                                                                                    26846037.843 5 139794434.56305      1863.114 5        32.377                                                                    26846044.245 6 113594386.90806      1514.090 6        38.393
I01        56.000   410127920.882 6 306289248.03206     -1711.390 6        36.257
I06        58.000    38624918.272 7 151572599.69307      -612.599 7        43.391
